[{"address": "경기 가평군 가평읍 달전리 405-15", "first_date": "2026-01-17", "gp_per_car_28d": "-183344.0", "hist_car_count": "1.6", "imaginary": "0", "last_date": "2026-04-03", "lat": "37.816558", "lng": "127.514341", "operation_days": "77", "parking_name": "가평 메밀촌", "region2": "가평군", "region3": "가평읍", "revenue_per_car_28d": "636742.0", "state": "1", "utilization_rate": "19.3", "zone_id": "22902", "zone_name": "가평 메밀촌"}, {"address": "경기 가평군 조종면 현리 259-1 현리공판장", "first_date": "2024-09-14", "gp_per_car_28d": "127791.0", "hist_car_count": "1.0", "imaginary": "0", "last_date": "2025-12-17", "lat": "37.818587", "lng": "127.351164", "operation_days": "393", "parking_name": "꼬끼오 현리점", "region2": "가평군", "region3": "조종면", "revenue_per_car_28d": "996352.0", "state": "0", "utilization_rate": "23.8", "zone_id": "19943", "zone_name": "꼬끼오 현리점"}, {"address": "경기 가평군 조종면 현리 412-1", "first_date": "2023-01-01", "gp_per_car_28d": "247271.0", "hist_car_count": "1.7", "imaginary": "0", "last_date": "2024-09-13", "lat": "37.818552", "lng": "127.349965", "operation_days": "622", "parking_name": "조종생활체육공원 옆", "region2": "가평군", "region3": "조종면", "revenue_per_car_28d": "1249750.0", "state": "0", "utilization_rate": "27.3", "zone_id": "16461", "zone_name": "조종생활체육공원 옆"}, {"address": "경기 가평군 청평면 청평리 465-6", "first_date": "2023-01-01", "gp_per_car_28d": "214776.0", "hist_car_count": "1.3", "imaginary": "0", "last_date": "2025-09-11", "lat": "37.738284", "lng": "127.419675", "operation_days": "848", "parking_name": "청평터미널 옆", "region2": "가평군", "region3": "청평면", "revenue_per_car_28d": "1169442.0", "state": "0", "utilization_rate": "33.0", "zone_id": "11637", "zone_name": "청평터미널 옆"}, {"address": "강원특별자치도 강릉시 내곡동 300-16", "first_date": "2023-07-21", "gp_per_car_28d": "293861.0", "hist_car_count": "1.0", "imaginary": "0", "last_date": "2025-07-04", "lat": "37.737563", "lng": "128.879228", "operation_days": "715", "parking_name": "CU 강릉블루밍점", "region2": "강릉시", "region3": "내곡동", "revenue_per_car_28d": "1653169.0", "state": "0", "utilization_rate": "34.7", "zone_id": "18146", "zone_name": "CU 강릉블루밍점"}, {"address": "강원 강릉시 교동 1891-7", "first_date": "2023-01-01", "gp_per_car_28d": "275390.0", "hist_car_count": "1.1", "imaginary": "0", "last_date": "2023-12-11", "lat": "37.763418", "lng": "128.874884", "operation_days": "339", "parking_name": "강릉 SM호텔 옆", "region2": "강릉시", "region3": "교동", "revenue_per_car_28d": "1308699.0", "state": "0", "utilization_rate": "38.8", "zone_id": "11719", "zone_name": "강릉 SM호텔 옆"}, {"address": "강원 강릉시 남문동 138-1", "first_date": "2023-01-01", "gp_per_car_28d": "236657.0", "hist_car_count": "2.1", "imaginary": "0", "last_date": "2025-08-07", "lat": "37.749985", "lng": "128.89253", "operation_days": "950", "parking_name": "강릉 남문길", "region2": "강릉시", "region3": "남문동", "revenue_per_car_28d": "1277926.0", "state": "0", "utilization_rate": "39.3", "zone_id": "15424", "zone_name": "강릉 남문길"}, {"address": "강원 강릉시 옥천동 225", "first_date": "2023-01-01", "gp_per_car_28d": "268071.0", "hist_car_count": "2.3", "imaginary": "0", "last_date": "2026-03-23", "lat": "37.759275", "lng": "128.901109", "operation_days": "1178", "parking_name": "강릉 동부시장", "region2": "강릉시", "region3": "옥천동", "revenue_per_car_28d": "1223554.0", "state": "0", "utilization_rate": "35.9", "zone_id": "10050", "zone_name": "강릉 동부시장"}, {"address": "강원 강릉시 명주동 7", "first_date": "2023-01-01", "gp_per_car_28d": "294315.0", "hist_car_count": "1.0", "imaginary": "0", "last_date": "2023-11-30", "lat": "37.7515", "lng": "128.893526", "operation_days": "334", "parking_name": "카카오T 명주동", "region2": "강릉시", "region3": "명주동", "revenue_per_car_28d": "1343721.0", "state": "0", "utilization_rate": "38.5", "zone_id": "13277", "zone_name": "강릉 명주동주차장 (운영종료)"}, {"address": "강원 강릉시 금학동 92-1 강릉 일번가", "first_date": "2023-01-01", "gp_per_car_28d": "342961.0", "hist_car_count": "1.0", "imaginary": "0", "last_date": "2023-07-31", "lat": "37.753105", "lng": "128.89449", "operation_days": "211", "parking_name": "강릉 일번가 주차장", "region2": "강릉시", "region3": "금학동", "revenue_per_car_28d": "1528808.0", "state": "0", "utilization_rate": "38.1", "zone_id": "13924", "zone_name": "강릉 일번가"}, {"address": "강원특별자치도 강릉시 포남동 1081", "first_date": "2025-06-05", "gp_per_car_28d": "172492.0", "hist_car_count": "8.9", "imaginary": "0", "last_date": "2025-07-02", "lat": "37.771712", "lng": "128.909756", "operation_days": "28", "parking_name": "강릉 차고지", "region2": "강릉시", "region3": "포남동", "revenue_per_car_28d": "1154043.0", "state": "0", "utilization_rate": "29.4", "zone_id": "21340", "zone_name": "강릉 차고지"}, {"address": "강원 강릉시 교동 118", "first_date": "2023-03-31", "gp_per_car_28d": "496410.0", "hist_car_count": "16.7", "imaginary": "0", "last_date": "2025-09-30", "lat": "37.765544", "lng": "128.901543", "operation_days": "915", "parking_name": "강릉역(KTX) 1주차장", "region2": "강릉시", "region3": "교동", "revenue_per_car_28d": "1465265.0", "state": "0", "utilization_rate": "44.0", "zone_id": "9840", "zone_name": "강릉역(KTX) 1주차장"}, {"address": "강원 강릉시 포남동 1109-2", "first_date": "2023-01-01", "gp_per_car_28d": "325592.0", "hist_car_count": "22.9", "imaginary": "0", "last_date": "2023-02-01", "lat": "37.766975", "lng": "128.903642", "operation_days": "32", "parking_name": "강릉역 쏘카전용주차장(C구역)", "region2": "강릉시", "region3": "포남동", "revenue_per_car_28d": "1104102.0", "state": "0", "utilization_rate": "40.1", "zone_id": "9622", "zone_name": "강릉역(KTX) C구역 옆"}, {"address": "강원 강릉시 교동 140-16", "first_date": "2024-07-20", "gp_per_car_28d": "195764.0", "hist_car_count": "2.0", "imaginary": "0", "last_date": "2024-08-29", "lat": "37.762606", "lng": "128.899857", "operation_days": "41", "parking_name": "강릉역(KTX) 블루핀오피스텔(전기차)", "region2": "강릉시", "region3": "교동", "revenue_per_car_28d": "1237405.0", "state": "0", "utilization_rate": "36.3", "zone_id": "19747", "zone_name": "강릉역(KTX) 블루핀오피스텔(전기차)"}, {"address": "강원특별자치도 강릉시 교동 131-3", "first_date": "2024-07-19", "gp_per_car_28d": "185240.0", "hist_car_count": "4.8", "imaginary": "0", "last_date": "2025-09-30", "lat": "37.76349", "lng": "128.901039", "operation_days": "427", "parking_name": "강릉역(KTX) 쏘카주차장(전기차)", "region2": "강릉시", "region3": "교동", "revenue_per_car_28d": "1271485.0", "state": "0", "utilization_rate": "38.9", "zone_id": "19723", "zone_name": "강릉역(KTX) 쏘카주차장(전기차)"}, {"address": "강원 강릉시 견소동 268-48", "first_date": "2023-01-01", "gp_per_car_28d": "73508.0", "hist_car_count": "1.0", "imaginary": "0", "last_date": "2023-12-11", "lat": "37.773541", "lng": "128.945065", "operation_days": "345", "parking_name": "강릉커피거리 옆", "region2": "강릉시", "region3": "견소동", "revenue_per_car_28d": "1061000.0", "state": "0", "utilization_rate": "30.3", "zone_id": "12980", "zone_name": "강릉커피거리 옆"}, {"address": "강원 강릉시 교동 1738", "first_date": "2023-01-01", "gp_per_car_28d": "311950.0", "hist_car_count": "1.0", "imaginary": "0", "last_date": "2023-01-06", "lat": "37.756916", "lng": "128.882019", "operation_days": "6", "parking_name": "터미널카센타", "region2": "강릉시", "region3": "교동", "revenue_per_car_28d": "1253586.0", "state": "0", "utilization_rate": "35.0", "zone_id": "1577", "zone_name": "강릉터미널 앞"}, {"address": "강원 강릉시 홍제동 233-9", "first_date": "2023-01-01", "gp_per_car_28d": "344323.0", "hist_car_count": "4.1", "imaginary": "0", "last_date": "2023-10-05", "lat": "37.755188", "lng": "128.88063", "operation_days": "278", "parking_name": "한진공업사 주차장", "region2": "강릉시", "region3": "홍제동", "revenue_per_car_28d": "1275021.0", "state": "0", "utilization_rate": "41.5", "zone_id": "3012", "zone_name": "강릉터미널 한진공업사"}, {"address": "강원특별자치도 강릉시 내곡동 422-7", "first_date": "2025-10-02", "gp_per_car_28d": "143729.0", "hist_car_count": "1.9", "imaginary": "0", "last_date": "2025-12-12", "lat": "37.742712", "lng": "128.881565", "operation_days": "72", "parking_name": "관동대학교 앞", "region2": "강릉시", "region3": "내곡동", "revenue_per_car_28d": "1091490.0", "state": "0", "utilization_rate": "39.6", "zone_id": "22641", "zone_name": "관동대학교 앞"}, {"address": "강원특별자치도 강릉시 교동 1890-2", "first_date": "2023-08-12", "gp_per_car_28d": "143055.0", "hist_car_count": "1.0", "imaginary": "0", "last_date": "2023-11-24", "lat": "37.762674", "lng": "128.875969", "operation_days": "105", "parking_name": "카카오T 강릉교동 2호점", "region2": "강릉시", "region3": "교동", "revenue_per_car_28d": "987634.0", "state": "0", "utilization_rate": "32.6", "zone_id": "18324", "zone_name": "다이소 강릉교동점 앞"}, {"address": "강원 강릉시 교동 1742", "first_date": "2023-01-04", "gp_per_car_28d": "373912.0", "hist_car_count": "6.2", "imaginary": "0", "last_date": "2026-02-05", "lat": "37.755136", "lng": "128.881271", "operation_days": "1129", "parking_name": "롯데 하이마트 교동점", "region2": "강릉시", "region3": "교동", "revenue_per_car_28d": "1312396.0", "state": "0", "utilization_rate": "43.3", "zone_id": "16495", "zone_name": "롯데 하이마트 교동점"}, {"address": "강원 강릉시 포남동 1005", "first_date": "2023-01-01", "gp_per_car_28d": "246519.0", "hist_car_count": "1.3", "imaginary": "0", "last_date": "2025-03-26", "lat": "37.766454", "lng": "128.911824", "operation_days": "781", "parking_name": "유니클로 강릉포남점", "region2": "강릉시", "region3": "포남동", "revenue_per_car_28d": "1243789.0", "state": "0", "utilization_rate": "38.2", "zone_id": "15892", "zone_name": "유니클로 강릉포남점"}, {"address": "강원특별자치도 강릉시 강동면 정동진리 50-18", "first_date": "2026-01-14", "gp_per_car_28d": "-91931.0", "hist_car_count": "1.0", "imaginary": "0", "last_date": "2026-02-12", "lat": "37.682185", "lng": "129.04205", "operation_days": "30", "parking_name": "정동진 솔라뷰 호텔", "region2": "강릉시", "region3": "강동면", "revenue_per_car_28d": "676816.0", "state": "1", "utilization_rate": "21.5", "zone_id": "22899", "zone_name": "정동진 솔라뷰 호텔"}, {"address": "강원 강릉시 사천면 사천진리 86-81", "first_date": "2023-05-03", "gp_per_car_28d": "225598.0", "hist_car_count": "1.3", "imaginary": "0", "last_date": "2025-07-09", "lat": "37.836592", "lng": "128.874611", "operation_days": "799", "parking_name": "컨피네스오션스위트", "region2": "강릉시", "region3": "사천면", "revenue_per_car_28d": "1125637.0", "state": "0", "utilization_rate": "27.2", "zone_id": "17389", "zone_name": "컨피네스오션스위트"}, {"address": "강원특별자치도 강릉시 포남동 1081-4", "first_date": "2025-06-27", "gp_per_car_28d": "500343.0", "hist_car_count": "12.7", "imaginary": "3", "last_date": "2025-09-03", "lat": "37.771528", "lng": "128.909576", "operation_days": "69", "parking_name": "포남 오거리 앞 (차고지v2)", "region2": "강릉시", "region3": "포남동", "revenue_per_car_28d": "1465126.0", "state": "0", "utilization_rate": "39.0", "zone_id": "21413", "zone_name": "포남 오거리 앞 (차고지v2)"}, {"address": "강원 강릉시 안현동 866", "first_date": "2023-01-01", "gp_per_car_28d": "434433.0", "hist_car_count": "2.0", "imaginary": "0", "last_date": "2025-06-05", "lat": "37.803901", "lng": "128.903451", "operation_days": "887", "parking_name": "하이오션경포", "region2": "강릉시", "region3": "안현동", "revenue_per_car_28d": "1575566.0", "state": "0", "utilization_rate": "31.9", "zone_id": "12396", "zone_name": "하이오션경포"}, {"address": "강원 강릉시 내곡동 490-1", "first_date": "2023-01-01", "gp_per_car_28d": "290585.0", "hist_car_count": "4.7", "imaginary": "0", "last_date": "2025-03-31", "lat": "37.74081", "lng": "128.880402", "operation_days": "821", "parking_name": "현대오일뱅크 쌍둥이점", "region2": "강릉시", "region3": "내곡동", "revenue_per_car_28d": "1420302.0", "state": "0", "utilization_rate": "36.0", "zone_id": "2108", "zone_name": "현대오일뱅크 쌍둥이점"}, {"address": "강원 강릉시 옥계면 금진리 92-1", "first_date": "2023-01-01", "gp_per_car_28d": "216887.0", "hist_car_count": "1.0", "imaginary": "0", "last_date": "2024-08-30", "lat": "37.655224", "lng": "129.05116", "operation_days": "603", "parking_name": "호텔탑스텐 주차장", "region2": "강릉시", "region3": "옥계면", "revenue_per_car_28d": "1073502.0", "state": "1", "utilization_rate": "20.7", "zone_id": "13156", "zone_name": "호텔 탑스텐"}, {"address": "강원 강릉시 옥천동 178-2", "first_date": "2023-01-01", "gp_per_car_28d": "251489.0", "hist_car_count": "2.6", "imaginary": "0", "last_date": "2024-12-20", "lat": "37.757029", "lng": "128.897555", "operation_days": "720", "parking_name": "홈플러스 강릉점 옆", "region2": "강릉시", "region3": "옥천동", "revenue_per_car_28d": "1294205.0", "state": "0", "utilization_rate": "38.3", "zone_id": "16367", "zone_name": "홈플러스 강릉점 옆"}, {"address": "강원 고성군 토성면 교암리 180-7", "first_date": "2023-06-02", "gp_per_car_28d": "96818.0", "hist_car_count": "1.0", "imaginary": "0", "last_date": "2023-08-31", "lat": "38.287158", "lng": "128.547756", "operation_days": "91", "parking_name": "맹그로브 고성", "region2": "고성군", "region3": "토성면", "revenue_per_car_28d": "842263.0", "state": "0", "utilization_rate": "19.8", "zone_id": "17524", "zone_name": "맹그로브 고성점"}, {"address": "강원 고성군 토성면 원암리 403-1", "first_date": "2023-06-09", "gp_per_car_28d": "300003.0", "hist_car_count": "1.1", "imaginary": "0", "last_date": "2024-10-14", "lat": "38.210859", "lng": "128.492914", "operation_days": "402", "parking_name": "소노캄 델피노", "region2": "고성군", "region3": "토성면", "revenue_per_car_28d": "1262287.0", "state": "1", "utilization_rate": "26.7", "zone_id": "10985", "zone_name": "소노캄 델피노"}, {"address": "강원 고성군 죽왕면 삼포리 243-13 오션투유콘도", "first_date": "2023-01-04", "gp_per_car_28d": "167570.0", "hist_car_count": "1.1", "imaginary": "0", "last_date": "2024-10-11", "lat": "38.316288", "lng": "128.531273", "operation_days": "442", "parking_name": "오션투유리조트", "region2": "고성군", "region3": "죽왕면", "revenue_per_car_28d": "832005.0", "state": "1", "utilization_rate": "24.5", "zone_id": "14329", "zone_name": "오션투유리조트"}, {"address": "경기 고양시 덕양구 화정동 984-2", "first_date": "2023-05-02", "gp_per_car_28d": "614043.0", "hist_car_count": "1.0", "imaginary": "0", "last_date": "2023-10-31", "lat": "37.631422", "lng": "126.830628", "operation_days": "183", "parking_name": "LG베스트샵 덕양본점", "region2": "고양시　덕양구", "region3": "화정동", "revenue_per_car_28d": "2220932.0", "state": "0", "utilization_rate": "42.6", "zone_id": "17263", "zone_name": "LG베스트샵 덕양본점"}, {"address": "경기 고양시 덕양구 행신동 1115-1 강매역사", "first_date": "2023-01-01", "gp_per_car_28d": "270978.0", "hist_car_count": "2.6", "imaginary": "0", "last_date": "2024-02-29", "lat": "37.612489", "lng": "126.845353", "operation_days": "425", "parking_name": "강매역 코레일주차장", "region2": "고양시　덕양구", "region3": "행신동", "revenue_per_car_28d": "1371985.0", "state": "0", "utilization_rate": "30.2", "zone_id": "15893", "zone_name": "강매역 2번출구"}, {"address": "경기 고양시 덕양구 향동동 467", "first_date": "2024-07-03", "gp_per_car_28d": "-44712.0", "hist_car_count": "1.0", "imaginary": "0", "last_date": "2025-03-24", "lat": "37.601354", "lng": "126.890862", "operation_days": "265", "parking_name": "고양 DMC스타비즈 3st", "region2": "고양시　덕양구", "region3": "향동동", "revenue_per_car_28d": "1106969.0", "state": "1", "utilization_rate": "30.2", "zone_id": "19569", "zone_name": "고양 DMC스타비즈 3st"}, {"address": "경기 고양시 덕양구 성사동 552-1 고양시생활체육공원 주차장", "first_date": "2023-01-01", "gp_per_car_28d": "348448.0", "hist_car_count": "1.0", "imaginary": "0", "last_date": "2023-01-02", "lat": "37.66196", "lng": "126.842844", "operation_days": "2", "parking_name": "[부름호출존] 고양시생활체육공원 주차장", "region2": "고양시　덕양구", "region3": "성사동", "revenue_per_car_28d": "1978772.0", "state": "0", "utilization_rate": "34.0", "zone_id": "13684", "zone_name": "고양 생활체육공원"}, {"address": "경기 고양시 덕양구 향동동 407 고양 향동 LH 1단지 아파트 102동 앞 지상주차장", "first_date": "2023-01-01", "gp_per_car_28d": "60418.0", "hist_car_count": "1.0", "imaginary": "0", "last_date": "2023-01-10", "lat": "37.607136", "lng": "126.896664", "operation_days": "10", "parking_name": "고양 향동LH 1단지 102동", "region2": "고양시　덕양구", "region3": "향동동", "revenue_per_car_28d": "1020991.0", "state": "0", "utilization_rate": "29.7", "zone_id": "11170", "zone_name": "고양 향동LH 1단지"}, {"address": "경기 고양시 덕양구 화정동 1147", "first_date": "2023-01-01", "gp_per_car_28d": "277904.0", "hist_car_count": "10.3", "imaginary": "0", "last_date": "2025-09-12", "lat": "37.627548", "lng": "126.82988", "operation_days": "986", "parking_name": "고양경찰서 앞", "region2": "고양시　덕양구", "region3": "화정동", "revenue_per_car_28d": "1538648.0", "state": "0", "utilization_rate": "37.7", "zone_id": "483", "zone_name": "고양경찰서 앞"}, {"address": "경기 고양시 덕양구 화정동 851 211동", "first_date": "2023-01-01", "gp_per_car_28d": "316703.0", "hist_car_count": "1.0", "imaginary": "0", "last_date": "2025-01-22", "lat": "37.646915", "lng": "126.837837", "operation_days": "753", "parking_name": "고양어울림누리 앞", "region2": "고양시　덕양구", "region3": "화정동", "revenue_per_car_28d": "1407015.0", "state": "0", "utilization_rate": "35.5", "zone_id": "5809", "zone_name": "고양어울림누리 앞"}, {"address": "경기 고양시 덕양구 지축동 996-1", "first_date": "2023-06-03", "gp_per_car_28d": "130149.0", "hist_car_count": "1.1", "imaginary": "0", "last_date": "2024-07-24", "lat": "37.649888", "lng": "126.913928", "operation_days": "418", "parking_name": "고양지축스타스퀘어", "region2": "고양시　덕양구", "region3": "지축동", "revenue_per_car_28d": "1094013.0", "state": "0", "utilization_rate": "24.3", "zone_id": "17445", "zone_name": "고양지축스타스퀘어"}, {"address": "경기 고양시 덕양구 내유동 397-3", "first_date": "2023-01-01", "gp_per_car_28d": "251906.0", "hist_car_count": "1.0", "imaginary": "0", "last_date": "2024-04-08", "lat": "37.71774", "lng": "126.848613", "operation_days": "464", "parking_name": "해피아이 102동", "region2": "고양시　덕양구", "region3": "내유동", "revenue_per_car_28d": "1030495.0", "state": "0", "utilization_rate": "26.6", "zone_id": "13682", "zone_name": "내유동 해피아이"}, {"address": "경기 고양시 덕양구 원당동 198-201 농협대학교 교내 축구장 옆 주차장", "first_date": "2026-03-20", "gp_per_car_28d": "-248469.0", "hist_car_count": "1.0", "imaginary": "0", "last_date": "2026-04-17", "lat": "37.659974", "lng": "126.870963", "operation_days": "29", "parking_name": "농협대학교", "region2": "고양시　덕양구", "region3": "원당동", "revenue_per_car_28d": "523429.0", "state": "1", "utilization_rate": "11.3", "zone_id": "23129", "zone_name": "농협대학교"}, {"address": "경기 고양시 덕양구 토당동 13 백조연립", "first_date": "2023-02-08", "gp_per_car_28d": "-66807.0", "hist_car_count": "1.0", "imaginary": "0", "last_date": "2023-04-01", "lat": "37.624614", "lng": "126.825728", "operation_days": "53", "parking_name": "토당동 빌라 민영주차장", "region2": "고양시　덕양구", "region3": "토당동", "revenue_per_car_28d": "885567.0", "state": "0", "utilization_rate": "24.3", "zone_id": "17023", "zone_name": "능곡고 옆 민영주차장"}, {"address": "경기 고양시 덕양구 주교동 615 대동피렌체", "first_date": "2025-09-04", "gp_per_car_28d": "93237.0", "hist_car_count": "1.0", "imaginary": "0", "last_date": "2025-12-18", "lat": "37.657502", "lng": "126.836497", "operation_days": "106", "parking_name": "대동피렌체상가", "region2": "고양시　덕양구", "region3": "주교동", "revenue_per_car_28d": "1149906.0", "state": "0", "utilization_rate": "40.2", "zone_id": "22571", "zone_name": "대동피렌체상가"}, {"address": "경기 고양시 덕양구 도내동 951-1 가림타워 오피스텔 가림타워 오피스텔 지하 주차장", "first_date": "2023-01-01", "gp_per_car_28d": "308610.0", "hist_car_count": "1.0", "imaginary": "0", "last_date": "2024-06-21", "lat": "37.635694", "lng": "126.869725", "operation_days": "538", "parking_name": "도내동 가림타워 오피스텔", "region2": "고양시　덕양구", "region3": "도내동", "revenue_per_car_28d": "1347758.0", "state": "0", "utilization_rate": "33.7", "zone_id": "16375", "zone_name": "도내동 가림타워 오피스텔"}, {"address": "경기 고양시 덕양구 도내동 951 힐사이드파크 1차 오피스텔 지하 주차장", "first_date": "2023-01-01", "gp_per_car_28d": "675702.0", "hist_car_count": "1.0", "imaginary": "0", "last_date": "2023-02-28", "lat": "37.635909", "lng": "126.869969", "operation_days": "59", "parking_name": "힐사이드파크 1차 오피스텔", "region2": "고양시　덕양구", "region3": "도내동", "revenue_per_car_28d": "1691523.0", "state": "0", "utilization_rate": "42.4", "zone_id": "14368", "zone_name": "도내동 힐사이드파크"}, {"address": "경기 고양시 덕양구 도내동 1025", "first_date": "2023-01-01", "gp_per_car_28d": "187919.0", "hist_car_count": "2.8", "imaginary": "0", "last_date": "2026-04-03", "lat": "37.630353", "lng": "126.869944", "operation_days": "1189", "parking_name": "도래울초등학교 앞", "region2": "고양시　덕양구", "region3": "도내동", "revenue_per_car_28d": "1327124.0", "state": "0", "utilization_rate": "33.8", "zone_id": "9551", "zone_name": "도래울초등학교 앞"}, {"address": "경기 고양시 덕양구 행신동 707-5", "first_date": "2023-01-04", "gp_per_car_28d": "317618.0", "hist_car_count": "2.3", "imaginary": "0", "last_date": "2026-03-24", "lat": "37.613031", "lng": "126.833722", "operation_days": "1176", "parking_name": "롯데 하이마트 행신역점", "region2": "고양시　덕양구", "region3": "행신동", "revenue_per_car_28d": "1573604.0", "state": "0", "utilization_rate": "34.3", "zone_id": "16493", "zone_name": "롯데 하이마트 행신역점"}, {"address": "경기 고양시 덕양구 신원동 623", "first_date": "2023-01-01", "gp_per_car_28d": "-47987.0", "hist_car_count": "1.0", "imaginary": "0", "last_date": "2025-03-28", "lat": "37.664721", "lng": "126.890016", "operation_days": "744", "parking_name": "롯데슈퍼 고양삼송점", "region2": "고양시　덕양구", "region3": "신원동", "revenue_per_car_28d": "935163.0", "state": "1", "utilization_rate": "23.7", "zone_id": "10524", "zone_name": "롯데슈퍼 고양삼송점"}, {"address": "경기 고양시 덕양구 관산동 226-2", "first_date": "2024-03-08", "gp_per_car_28d": "341102.0", "hist_car_count": "1.0", "imaginary": "0", "last_date": "2024-04-30", "lat": "37.687475", "lng": "126.864003", "operation_days": "54", "parking_name": "벽제농협 제1주차장", "region2": "고양시　덕양구", "region3": "관산동", "revenue_per_car_28d": "1550887.0", "state": "0", "utilization_rate": "32.2", "zone_id": "19129", "zone_name": "벽제농협 본점"}, {"address": "경기 고양시 덕양구 오금동 595", "first_date": "2026-04-04", "gp_per_car_28d": "-359629.0", "hist_car_count": "1.0", "imaginary": "0", "last_date": "2026-04-04", "lat": "37.661832", "lng": "126.89833", "operation_days": "1", "parking_name": "삼송 서한 비아티움", "region2": "고양시　덕양구", "region3": "오금동", "revenue_per_car_28d": "0.0", "state": "0", "utilization_rate": "0.0", "zone_id": "23130", "zone_name": "삼송 서한 비아티움"}, {"address": "경기 고양시 덕양구 삼송동 143-11", "first_date": "2023-01-01", "gp_per_car_28d": "301108.0", "hist_car_count": "1.0", "imaginary": "0", "last_date": "2025-10-21", "lat": "37.650878", "lng": "126.890135", "operation_days": "1025", "parking_name": "삼송2차아이파크 앞", "region2": "고양시　덕양구", "region3": "삼송동", "revenue_per_car_28d": "1345230.0", "state": "0", "utilization_rate": "33.5", "zone_id": "6711", "zone_name": "삼송2차아이파크 앞"}, {"address": "경기 고양시 덕양구 삼송동 293", "first_date": "2024-09-28", "gp_per_car_28d": "-162303.0", "hist_car_count": "1.0", "imaginary": "0", "last_date": "2025-03-14", "lat": "37.653273", "lng": "126.899042", "operation_days": "166", "parking_name": "삼송현대헤리엇(전기차)", "region2": "고양시　덕양구", "region3": "삼송동", "revenue_per_car_28d": "1234545.0", "state": "0", "utilization_rate": "42.6", "zone_id": "19963", "zone_name": "삼송현대헤리엇(전기차)"}, {"address": "경기 고양시 덕양구 성사동 720 성사 제1공영주차장", "first_date": "2023-01-01", "gp_per_car_28d": "279299.0", "hist_car_count": "1.0", "imaginary": "0", "last_date": "2025-02-28", "lat": "37.653599", "lng": "126.838784", "operation_days": "445", "parking_name": "성사 제1공영주차장", "region2": "고양시　덕양구", "region3": "성사동", "revenue_per_car_28d": "1255458.0", "state": "0", "utilization_rate": "41.6", "zone_id": "13112", "zone_name": "성사 제1공영주차장"}, {"address": "경기 고양시 덕양구 행신동 781", "first_date": "2023-01-01", "gp_per_car_28d": "516001.0", "hist_car_count": "1.0", "imaginary": "0", "last_date": "2025-01-13", "lat": "37.616982", "lng": "126.841103", "operation_days": "744", "parking_name": "소만초교 옆", "region2": "고양시　덕양구", "region3": "행신동", "revenue_per_car_28d": "1554808.0", "state": "0", "utilization_rate": "31.4", "zone_id": "5709", "zone_name": "소만초교 옆"}, {"address": "경기 고양시 덕양구 성사동 696 삼성홈타워오피스텔", "first_date": "2023-01-01", "gp_per_car_28d": "235778.0", "hist_car_count": "1.7", "imaginary": "0", "last_date": "2025-12-18", "lat": "37.657097", "lng": "126.837051", "operation_days": "1083", "parking_name": "원당시장", "region2": "고양시　덕양구", "region3": "성사동", "revenue_per_car_28d": "1467762.0", "state": "0", "utilization_rate": "37.0", "zone_id": "9302", "zone_name": "원당시장"}, {"address": "경기 고양시 덕양구 성사동 510-5 원당타운", "first_date": "2023-08-12", "gp_per_car_28d": "198475.0", "hist_car_count": "2.0", "imaginary": "0", "last_date": "2025-04-12", "lat": "37.657349", "lng": "126.837575", "operation_days": "610", "parking_name": "원당타운", "region2": "고양시　덕양구", "region3": "성사동", "revenue_per_car_28d": "1401395.0", "state": "0", "utilization_rate": "32.4", "zone_id": "18399", "zone_name": "원당타운"}, {"address": "경기 고양시 덕양구 원흥동 631", "first_date": "2023-01-01", "gp_per_car_28d": "233766.0", "hist_car_count": "1.5", "imaginary": "0", "last_date": "2025-12-18", "lat": "37.649303", "lng": "126.875107", "operation_days": "1083", "parking_name": "원흥KB중앙타워", "region2": "고양시　덕양구", "region3": "원흥동", "revenue_per_car_28d": "1379315.0", "state": "0", "utilization_rate": "34.1", "zone_id": "5807", "zone_name": "원흥KB중앙타워"}, {"address": "경기 고양시 덕양구 원흥동 627 원흥역 봄오피스텔 지하 2층", "first_date": "2023-01-01", "gp_per_car_28d": "301524.0", "hist_car_count": "1.1", "imaginary": "0", "last_date": "2025-11-11", "lat": "37.650006", "lng": "126.874411", "operation_days": "1036", "parking_name": "원흥역 1번출구", "region2": "고양시　덕양구", "region3": "원흥동", "revenue_per_car_28d": "1419053.0", "state": "0", "utilization_rate": "36.2", "zone_id": "8034", "zone_name": "원흥역 1번출구"}, {"address": "경기 고양시 덕양구 원흥동 142-5", "first_date": "2023-01-01", "gp_per_car_28d": "334605.0", "hist_car_count": "6.0", "imaginary": "0", "last_date": "2026-01-29", "lat": "37.650865", "lng": "126.87318", "operation_days": "1115", "parking_name": "원흥역 6번출구", "region2": "고양시　덕양구", "region3": "원흥동", "revenue_per_car_28d": "1463958.0", "state": "0", "utilization_rate": "36.6", "zone_id": "9372", "zone_name": "원흥역 6번출구"}, {"address": "경기도 고양시 덕양구 원흥1로 46-5", "first_date": "2024-08-01", "gp_per_car_28d": "129034.0", "hist_car_count": "1.1", "imaginary": "0", "last_date": "2025-12-18", "lat": "37.650853", "lng": "126.86973", "operation_days": "504", "parking_name": "원흥초등학교 옆", "region2": "고양시　덕양구", "region3": "원흥동", "revenue_per_car_28d": "1204243.0", "state": "0", "utilization_rate": "30.8", "zone_id": "19764", "zone_name": "원흥초등학교 옆"}, {"address": "경기 고양시 덕양구 지축동 940", "first_date": "2023-01-01", "gp_per_car_28d": "242302.0", "hist_car_count": "3.2", "imaginary": "0", "last_date": "2026-02-10", "lat": "37.65614", "lng": "126.922083", "operation_days": "1137", "parking_name": "위스테이지축아파트", "region2": "고양시　덕양구", "region3": "지축동", "revenue_per_car_28d": "1227694.0", "state": "0", "utilization_rate": "30.7", "zone_id": "14944", "zone_name": "위스테이지축아파트"}, {"address": "경기 고양시 덕양구 지축동 1057-2 지에스프라자", "first_date": "2023-07-21", "gp_per_car_28d": "172687.0", "hist_car_count": "1.0", "imaginary": "0", "last_date": "2025-01-22", "lat": "37.648728", "lng": "126.917392", "operation_days": "552", "parking_name": "지축 지에스프라자", "region2": "고양시　덕양구", "region3": "지축동", "revenue_per_car_28d": "1309325.0", "state": "0", "utilization_rate": "29.3", "zone_id": "18177", "zone_name": "지축 지에스프라자"}, {"address": "경기 고양시 덕양구 지축동 1070-1", "first_date": "2024-07-03", "gp_per_car_28d": "61096.0", "hist_car_count": "1.0", "imaginary": "0", "last_date": "2025-05-25", "lat": "37.647167", "lng": "126.916674", "operation_days": "327", "parking_name": "지축역 1번출구 (엘스페이스)", "region2": "고양시　덕양구", "region3": "지축동", "revenue_per_car_28d": "1162497.0", "state": "0", "utilization_rate": "30.7", "zone_id": "19570", "zone_name": "지축역 1번출구 (엘스페이스)"}, {"address": "경기 고양시 덕양구 토당동 894 씨앗주택", "first_date": "2023-01-01", "gp_per_car_28d": "208228.0", "hist_car_count": "1.0", "imaginary": "0", "last_date": "2025-09-11", "lat": "37.627794", "lng": "126.824961", "operation_days": "968", "parking_name": "토당청소년수련관 옆", "region2": "고양시　덕양구", "region3": "토당동", "revenue_per_car_28d": "1236019.0", "state": "0", "utilization_rate": "35.9", "zone_id": "13644", "zone_name": "토당청소년수련관 옆"}, {"address": "경기 고양시 덕양구 고양동 1121 푸른마을10단지아파트", "first_date": "2023-07-11", "gp_per_car_28d": "188751.0", "hist_car_count": "1.0", "imaginary": "0", "last_date": "2025-01-22", "lat": "37.715377", "lng": "126.903029", "operation_days": "562", "parking_name": "푸른마을10단지 1001동", "region2": "고양시　덕양구", "region3": "고양동", "revenue_per_car_28d": "1112929.0", "state": "0", "utilization_rate": "49.3", "zone_id": "17818", "zone_name": "푸른마을10단지 1001동"}, {"address": "경기 고양시 덕양구 동산동 373", "first_date": "2023-05-19", "gp_per_car_28d": "252504.0", "hist_car_count": "8.0", "imaginary": "0", "last_date": "2023-05-22", "lat": "37.648917", "lng": "126.898504", "operation_days": "4", "parking_name": "하나로마트 삼송점", "region2": "고양시　덕양구", "region3": "동산동", "revenue_per_car_28d": "1363001.0", "state": "0", "utilization_rate": "28.7", "zone_id": "8781", "zone_name": "하나로마트 삼송점"}, {"address": "경기 고양시 덕양구 행신동 761-6 신영프라자 지하 2층", "first_date": "2023-01-01", "gp_per_car_28d": "79897.0", "hist_car_count": "1.0", "imaginary": "0", "last_date": "2023-02-10", "lat": "37.614394", "lng": "126.834447", "operation_days": "41", "parking_name": "행신 신영프라자 주차장", "region2": "고양시　덕양구", "region3": "행신동", "revenue_per_car_28d": "1052729.0", "state": "0", "utilization_rate": "38.3", "zone_id": "15634", "zone_name": "행신 신영프라자"}, {"address": "경기 고양시 덕양구 행신동 728 행신동제1공영주차장", "first_date": "2023-01-01", "gp_per_car_28d": "286357.0", "hist_car_count": "1.0", "imaginary": "0", "last_date": "2024-10-28", "lat": "37.617415", "lng": "126.833008", "operation_days": "667", "parking_name": "행신 제1공영주차장", "region2": "고양시　덕양구", "region3": "행신동", "revenue_per_car_28d": "1268239.0", "state": "0", "utilization_rate": "32.7", "zone_id": "14069", "zone_name": "행신 제1공영주차장"}, {"address": "경기 고양시 덕양구 행신동 748 행신 제2공영주차장", "first_date": "2023-01-01", "gp_per_car_28d": "321937.0", "hist_car_count": "1.0", "imaginary": "0", "last_date": "2024-10-28", "lat": "37.617", "lng": "126.835141", "operation_days": "667", "parking_name": "행신 제2공영주차장", "region2": "고양시　덕양구", "region3": "행신동", "revenue_per_car_28d": "1356081.0", "state": "0", "utilization_rate": "36.4", "zone_id": "11172", "zone_name": "행신 제2공영주차장"}, {"address": "경기 고양시 덕양구 행신동 711 행신동 제3공영주차장", "first_date": "2023-01-01", "gp_per_car_28d": "384495.0", "hist_car_count": "1.0", "imaginary": "0", "last_date": "2023-06-07", "lat": "37.614416", "lng": "126.832674", "operation_days": "158", "parking_name": "행신동 제3공영주차장", "region2": "고양시　덕양구", "region3": "행신동", "revenue_per_car_28d": "1436686.0", "state": "0", "utilization_rate": "45.0", "zone_id": "14204", "zone_name": "행신 제3공영주차장"}, {"address": "경기 고양시 덕양구 행신동 759 행신 제5공영주차장", "first_date": "2023-01-01", "gp_per_car_28d": "260119.0", "hist_car_count": "1.1", "imaginary": "0", "last_date": "2023-02-28", "lat": "37.614353", "lng": "126.835579", "operation_days": "59", "parking_name": "행신동 제5공영주차장", "region2": "고양시　덕양구", "region3": "행신동", "revenue_per_car_28d": "1387764.0", "state": "0", "utilization_rate": "39.8", "zone_id": "3112", "zone_name": "행신 제5공영주차장"}, {"address": "경기 고양시 덕양구 행신동 805 행신 제9공영주차장", "first_date": "2023-01-01", "gp_per_car_28d": "478517.0", "hist_car_count": "1.1", "imaginary": "0", "last_date": "2024-10-28", "lat": "37.614421", "lng": "126.843455", "operation_days": "667", "parking_name": "행신 제9공영주차장", "region2": "고양시　덕양구", "region3": "행신동", "revenue_per_car_28d": "1604135.0", "state": "0", "utilization_rate": "36.8", "zone_id": "13124", "zone_name": "행신 제9공영주차장"}, {"address": "경기 고양시 덕양구 행신동 938 햇빛마을18단지아파트 1816동 뒤 지상주차장", "first_date": "2023-01-01", "gp_per_car_28d": "376771.0", "hist_car_count": "1.0", "imaginary": "0", "last_date": "2023-08-31", "lat": "37.62558", "lng": "126.836906", "operation_days": "243", "parking_name": "햇빛마을 18단지 아파트 1816동 뒤", "region2": "고양시　덕양구", "region3": "행신동", "revenue_per_car_28d": "1443947.0", "state": "0", "utilization_rate": "43.6", "zone_id": "10839", "zone_name": "행신3동 주민센터 앞"}, {"address": "경기 고양시 덕양구 향동동 396", "first_date": "2025-06-20", "gp_per_car_28d": "139652.0", "hist_car_count": "1.0", "imaginary": "0", "last_date": "2025-09-26", "lat": "37.608451", "lng": "126.893894", "operation_days": "99", "parking_name": "현대테라타워dmc", "region2": "고양시　덕양구", "region3": "향동동", "revenue_per_car_28d": "1175261.0", "state": "0", "utilization_rate": "39.9", "zone_id": "21381", "zone_name": "현대테라타워dmc"}, {"address": "경기 고양시 덕양구 화전동 183-10", "first_date": "2023-01-01", "gp_per_car_28d": "179990.0", "hist_car_count": "1.0", "imaginary": "0", "last_date": "2023-11-30", "lat": "37.60371", "lng": "126.868019", "operation_days": "325", "parking_name": "화전역 코레일주차장", "region2": "고양시　덕양구", "region3": "화전동", "revenue_per_car_28d": "1306076.0", "state": "0", "utilization_rate": "30.6", "zone_id": "5567", "zone_name": "화전역(한국항공대)"}, {"address": "경기 고양시 덕양구 화정동 953 별빛마을7단지아파트 715동 옆 지상주차장", "first_date": "2023-01-01", "gp_per_car_28d": "448511.0", "hist_car_count": "1.0", "imaginary": "0", "last_date": "2025-01-13", "lat": "37.633489", "lng": "126.827876", "operation_days": "744", "parking_name": "화정역 2번출구", "region2": "고양시　덕양구", "region3": "화정동", "revenue_per_car_28d": "1543922.0", "state": "0", "utilization_rate": "40.3", "zone_id": "11109", "zone_name": "화정역 2번출구"}, {"address": "경기 고양시 덕양구 화정동 965", "first_date": "2023-01-01", "gp_per_car_28d": "357379.0", "hist_car_count": "1.0", "imaginary": "0", "last_date": "2023-11-24", "lat": "37.635109", "lng": "126.833565", "operation_days": "328", "parking_name": "한화오벨리스크", "region2": "고양시　덕양구", "region3": "화정동", "revenue_per_car_28d": "1440475.0", "state": "0", "utilization_rate": "40.7", "zone_id": "3451", "zone_name": "화정역 4번출구"}, {"address": "경기 고양시 일산동구 중산동 1801 하늘마을3단지아파트", "first_date": "2023-07-15", "gp_per_car_28d": "411692.0", "hist_car_count": "1.0", "imaginary": "0", "last_date": "2023-08-29", "lat": "37.67709", "lng": "126.784558", "operation_days": "46", "parking_name": "CU 일산중산하늘점", "region2": "고양시　일산동구", "region3": "중산동", "revenue_per_car_28d": "1554486.0", "state": "0", "utilization_rate": "25.0", "zone_id": "17864", "zone_name": "CU 일산중산하늘점"}, {"address": "경기 고양시 일산동구 풍동 1265", "first_date": "2023-07-15", "gp_per_car_28d": "146957.0", "hist_car_count": "1.4", "imaginary": "0", "last_date": "2024-10-31", "lat": "37.668985", "lng": "126.800537", "operation_days": "475", "parking_name": "CU 일산풍동4단지점", "region2": "고양시　일산동구", "region3": "풍동", "revenue_per_car_28d": "1242685.0", "state": "0", "utilization_rate": "33.3", "zone_id": "17855", "zone_name": "CU 일산풍동4단지점"}, {"address": "경기 고양시 일산동구 장항동 869 SK엠시티드라마파크상가 지하1층", "first_date": "2023-01-01", "gp_per_car_28d": "205206.0", "hist_car_count": "1.8", "imaginary": "0", "last_date": "2025-06-30", "lat": "37.654013", "lng": "126.771071", "operation_days": "910", "parking_name": "MBC드림센터 옆", "region2": "고양시　일산동구", "region3": "장항동", "revenue_per_car_28d": "1133468.0", "state": "0", "utilization_rate": "32.1", "zone_id": "6113", "zone_name": "MBC드림센터 옆"}, {"address": "경기 고양시 일산동구 마두동 806", "first_date": "2023-01-01", "gp_per_car_28d": "401707.0", "hist_car_count": "1.0", "imaginary": "0", "last_date": "2023-08-11", "lat": "37.650045", "lng": "126.779686", "operation_days": "223", "parking_name": "강촌마을6단지아파트 602동", "region2": "고양시　일산동구", "region3": "마두동", "revenue_per_car_28d": "1480955.0", "state": "0", "utilization_rate": "35.8", "zone_id": "8595", "zone_name": "강촌마을6단지"}, {"address": "경기 고양시 일산동구 장항동 750", "first_date": "2023-01-01", "gp_per_car_28d": "363871.0", "hist_car_count": "2.5", "imaginary": "0", "last_date": "2025-10-29", "lat": "37.661822", "lng": "126.764815", "operation_days": "1033", "parking_name": "고양 삼성스위트오피스텔", "region2": "고양시　일산동구", "region3": "장항동", "revenue_per_car_28d": "1556756.0", "state": "0", "utilization_rate": "36.1", "zone_id": "14916", "zone_name": "고양 삼성스위트오피스텔"}, {"address": "경기 고양시 일산동구 장항동 753 청원레이크빌", "first_date": "2023-01-01", "gp_per_car_28d": "287179.0", "hist_car_count": "1.9", "imaginary": "0", "last_date": "2025-06-30", "lat": "37.65925", "lng": "126.767331", "operation_days": "873", "parking_name": "고양일산우체국 옆", "region2": "고양시　일산동구", "region3": "장항동", "revenue_per_car_28d": "1296179.0", "state": "0", "utilization_rate": "36.3", "zone_id": "8656", "zone_name": "고양일산우체국 옆"}, {"address": "경기 고양시 일산동구 백석동 1239-2", "first_date": "2023-01-01", "gp_per_car_28d": "134922.0", "hist_car_count": "1.0", "imaginary": "0", "last_date": "2024-09-30", "lat": "37.644341", "lng": "126.79097", "operation_days": "639", "parking_name": "고양종합터미널 옆", "region2": "고양시　일산동구", "region3": "백석동", "revenue_per_car_28d": "1149122.0", "state": "0", "utilization_rate": "37.6", "zone_id": "6555", "zone_name": "고양종합터미널 옆"}, {"address": "경기 고양시 일산동구 마두동 840-1", "first_date": "2023-01-01", "gp_per_car_28d": "277956.0", "hist_car_count": "1.0", "imaginary": "0", "last_date": "2024-05-31", "lat": "37.664784", "lng": "126.785315", "operation_days": "513", "parking_name": "리네일아트", "region2": "고양시　일산동구", "region3": "마두동", "revenue_per_car_28d": "1336407.0", "state": "0", "utilization_rate": "38.3", "zone_id": "8616", "zone_name": "냉천초등학교 옆"}, {"address": "경기 고양시 일산동구 마두동 797-1", "first_date": "2023-01-01", "gp_per_car_28d": "185231.0", "hist_car_count": "2.1", "imaginary": "0", "last_date": "2026-01-15", "lat": "37.654773", "lng": "126.777338", "operation_days": "1082", "parking_name": "뉴코아아울렛 일산점", "region2": "고양시　일산동구", "region3": "마두동", "revenue_per_car_28d": "1341150.0", "state": "0", "utilization_rate": "35.1", "zone_id": "7784", "zone_name": "뉴코아아울렛 일산점"}, {"address": "경기 고양시 일산동구 장항동 750-1 대우메종리브르", "first_date": "2023-01-01", "gp_per_car_28d": "353501.0", "hist_car_count": "1.0", "imaginary": "0", "last_date": "2025-01-13", "lat": "37.661468", "lng": "126.765165", "operation_days": "743", "parking_name": "대우매종리브르 오피스텔", "region2": "고양시　일산동구", "region3": "장항동", "revenue_per_car_28d": "1569379.0", "state": "0", "utilization_rate": "40.8", "zone_id": "14553", "zone_name": "대우매종리브르 오피스텔"}, {"address": "경기 고양시 일산동구 식사동 662-7", "first_date": "2023-05-11", "gp_per_car_28d": "225629.0", "hist_car_count": "1.6", "imaginary": "0", "last_date": "2025-07-30", "lat": "37.676051", "lng": "126.808932", "operation_days": "782", "parking_name": "동국대학교일산병원 앞", "region2": "고양시　일산동구", "region3": "식사동", "revenue_per_car_28d": "1437627.0", "state": "0", "utilization_rate": "34.1", "zone_id": "17396", "zone_name": "동국대학교일산병원 앞"}, {"address": "경기 고양시 일산동구 장항동 895", "first_date": "2023-01-01", "gp_per_car_28d": "422609.0", "hist_car_count": "1.0", "imaginary": "0", "last_date": "2024-09-13", "lat": "37.651225", "lng": "126.777616", "operation_days": "621", "parking_name": "마두역 1번출구", "region2": "고양시　일산동구", "region3": "장항동", "revenue_per_car_28d": "1347678.0", "state": "0", "utilization_rate": "53.2", "zone_id": "8935", "zone_name": "마두역 1번출구"}, {"address": "경기 고양시 일산동구 장항동 853-1", "first_date": "2023-01-01", "gp_per_car_28d": "336819.0", "hist_car_count": "8.7", "imaginary": "3", "last_date": "2025-05-26", "lat": "37.655284", "lng": "126.773825", "operation_days": "877", "parking_name": "마두역 4번출구", "region2": "고양시　일산동구", "region3": "장항동", "revenue_per_car_28d": "1540246.0", "state": "0", "utilization_rate": "40.3", "zone_id": "6782", "zone_name": "마두역 4번출구"}, {"address": "경기 고양시 일산동구 장항동 853-1", "first_date": "2023-03-07", "gp_per_car_28d": "249674.0", "hist_car_count": "2.6", "imaginary": "0", "last_date": "2024-12-13", "lat": "37.655346", "lng": "126.773447", "operation_days": "648", "parking_name": "마두역 4번출구(전기차)", "region2": "고양시　일산동구", "region3": "장항동", "revenue_per_car_28d": "1693474.0", "state": "0", "utilization_rate": "50.7", "zone_id": "17146", "zone_name": "마두역 4번출구(전기차)"}, {"address": "경기 고양시 일산동구 마두동 805-1", "first_date": "2023-01-01", "gp_per_car_28d": "148931.0", "hist_car_count": "1.2", "imaginary": "0", "last_date": "2023-11-24", "lat": "37.651066", "lng": "126.778995", "operation_days": "328", "parking_name": "오원프라자", "region2": "고양시　일산동구", "region3": "마두동", "revenue_per_car_28d": "1091864.0", "state": "0", "utilization_rate": "36.3", "zone_id": "6715", "zone_name": "마두역 8번출구"}, {"address": "경기 고양시 일산동구 중산동 1836-3", "first_date": "2023-01-01", "gp_per_car_28d": "300245.0", "hist_car_count": "2.0", "imaginary": "0", "last_date": "2026-01-08", "lat": "37.677556", "lng": "126.78217", "operation_days": "858", "parking_name": "모당초등학교 앞", "region2": "고양시　일산동구", "region3": "중산동", "revenue_per_car_28d": "1447864.0", "state": "1", "utilization_rate": "42.3", "zone_id": "10831", "zone_name": "모당초등학교 앞"}, {"address": "경기 고양시 일산동구 백석동 92", "first_date": "2023-01-01", "gp_per_car_28d": "273900.0", "hist_car_count": "5.0", "imaginary": "0", "last_date": "2026-03-27", "lat": "37.658799", "lng": "126.793671", "operation_days": "1030", "parking_name": "백마역", "region2": "고양시　일산동구", "region3": "백석동", "revenue_per_car_28d": "1431176.0", "state": "1", "utilization_rate": "37.2", "zone_id": "3431", "zone_name": "백마역"}, {"address": "경기 고양시 일산동구 백석동 1320 동문굿모닝힐II 202동 지하주차장", "first_date": "2023-01-01", "gp_per_car_28d": "487424.0", "hist_car_count": "1.0", "imaginary": "0", "last_date": "2024-09-30", "lat": "37.638678", "lng": "126.787609", "operation_days": "639", "parking_name": "백석 동문굿모닝힐 202동", "region2": "고양시　일산동구", "region3": "백석동", "revenue_per_car_28d": "1711700.0", "state": "0", "utilization_rate": "41.2", "zone_id": "14358", "zone_name": "백석 동문굿모닝힐 202동"}, {"address": "경기 고양시 일산동구 백석동 1311 백석동 제1공영주차장", "first_date": "2023-01-01", "gp_per_car_28d": "181275.0", "hist_car_count": "1.0", "imaginary": "0", "last_date": "2023-02-28", "lat": "37.640849", "lng": "126.787335", "operation_days": "59", "parking_name": "백석 제1공영주차장", "region2": "고양시　일산동구", "region3": "백석동", "revenue_per_car_28d": "1062894.0", "state": "0", "utilization_rate": "36.6", "zone_id": "2692", "zone_name": "백석 제1공영주차장"}, {"address": "경기 고양시 일산동구 백석동 1315(백석2노외주차장)", "first_date": "2023-01-01", "gp_per_car_28d": "180206.0", "hist_car_count": "1.1", "imaginary": "0", "last_date": "2023-02-28", "lat": "37.639261", "lng": "126.789474", "operation_days": "59", "parking_name": "백석 제2공영주차장", "region2": "고양시　일산동구", "region3": "백석동", "revenue_per_car_28d": "1052008.0", "state": "0", "utilization_rate": "38.9", "zone_id": "13617", "zone_name": "백석 제2공영주차장"}, {"address": "경기 고양시 일산동구 백석동 1309-1", "first_date": "2023-01-01", "gp_per_car_28d": "252298.0", "hist_car_count": "2.7", "imaginary": "0", "last_date": "2025-12-15", "lat": "37.641285", "lng": "126.786825", "operation_days": "1079", "parking_name": "백석역 2번출구", "region2": "고양시　일산동구", "region3": "백석동", "revenue_per_car_28d": "1396864.0", "state": "0", "utilization_rate": "38.4", "zone_id": "5033", "zone_name": "백석역 2번출구"}, {"address": "경기 고양시 일산동구 백석동 1318 비잔티움1단지 지하 2층", "first_date": "2023-01-01", "gp_per_car_28d": "332736.0", "hist_car_count": "1.0", "imaginary": "0", "last_date": "2024-09-30", "lat": "37.638938", "lng": "126.788777", "operation_days": "639", "parking_name": "백석역 비잔티움1단지", "region2": "고양시　일산동구", "region3": "백석동", "revenue_per_car_28d": "1226439.0", "state": "0", "utilization_rate": "33.2", "zone_id": "10974", "zone_name": "백석역 비잔티움1단지"}, {"address": "경기 고양시 일산동구 식사동 835-2", "first_date": "2023-04-29", "gp_per_car_28d": "106091.0", "hist_car_count": "1.0", "imaginary": "0", "last_date": "2025-05-28", "lat": "37.676025", "lng": "126.799603", "operation_days": "737", "parking_name": "불스원 워시&케어 고양식사점", "region2": "고양시　일산동구", "region3": "식사동", "revenue_per_car_28d": "1018491.0", "state": "0", "utilization_rate": "27.4", "zone_id": "17251", "zone_name": "불스원 워시&케어 고양식사점"}, {"address": "경기 고양시 일산동구 장항동 730-1 양우로데오시티 양우로데오시티 지하 2층 주차장", "first_date": "2023-01-01", "gp_per_car_28d": "586777.0", "hist_car_count": "1.0", "imaginary": "0", "last_date": "2023-08-01", "lat": "37.664812", "lng": "126.766348", "operation_days": "213", "parking_name": "양우로데오시티 오피스텔 주차장", "region2": "고양시　일산동구", "region3": "장항동", "revenue_per_car_28d": "1946643.0", "state": "0", "utilization_rate": "41.9", "zone_id": "12150", "zone_name": "양우로데오시티"}, {"address": "경기 고양시 일산동구 식사동 1510 위시티블루밍3단지아파트", "first_date": "2023-05-05", "gp_per_car_28d": "127505.0", "hist_car_count": "1.0", "imaginary": "0", "last_date": "2023-08-16", "lat": "37.682089", "lng": "126.809818", "operation_days": "104", "parking_name": "위시티블루밍 315동 앞 지하주차장", "region2": "고양시　일산동구", "region3": "식사동", "revenue_per_car_28d": "1206212.0", "state": "0", "utilization_rate": "36.8", "zone_id": "17380", "zone_name": "위시티블루밍 315동 앞"}, {"address": "경기 고양시 일산동구 중산동 1809 이마트 풍산점 지상 6층", "first_date": "2025-03-14", "gp_per_car_28d": "-58023.0", "hist_car_count": "1.9", "imaginary": "0", "last_date": "2025-06-01", "lat": "37.673847", "lng": "126.78688", "operation_days": "80", "parking_name": "이마트 풍산점", "region2": "고양시　일산동구", "region3": "중산동", "revenue_per_car_28d": "711263.0", "state": "0", "utilization_rate": "23.5", "zone_id": "8536", "zone_name": "이마트 풍산점"}, {"address": "경기 고양시 일산동구 백석동 1237", "first_date": "2023-01-01", "gp_per_car_28d": "265868.0", "hist_car_count": "2.6", "imaginary": "0", "last_date": "2025-12-19", "lat": "37.642333", "lng": "126.7917", "operation_days": "1084", "parking_name": "일산 벨라시타", "region2": "고양시　일산동구", "region3": "백석동", "revenue_per_car_28d": "1460535.0", "state": "0", "utilization_rate": "36.8", "zone_id": "15632", "zone_name": "일산 벨라시타"}, {"address": "경기 고양시 일산동구 중산동 1651", "first_date": "2023-01-01", "gp_per_car_28d": "305246.0", "hist_car_count": "1.0", "imaginary": "0", "last_date": "2025-06-30", "lat": "37.683109", "lng": "126.779547", "operation_days": "910", "parking_name": "일산2동 주민센터 앞", "region2": "고양시　일산동구", "region3": "중산동", "revenue_per_car_28d": "1300407.0", "state": "0", "utilization_rate": "35.2", "zone_id": "8569", "zone_name": "일산2동 주민센터 앞"}, {"address": "경기 고양시 일산동구 마두동 801 올림픽스포츠센터", "first_date": "2023-01-01", "gp_per_car_28d": "49608.0", "hist_car_count": "2.5", "imaginary": "0", "last_date": "2023-08-01", "lat": "37.652611", "lng": "126.778114", "operation_days": "213", "parking_name": "일산올림픽스포츠센터", "region2": "고양시　일산동구", "region3": "마두동", "revenue_per_car_28d": "956059.0", "state": "0", "utilization_rate": "25.2", "zone_id": "16119", "zone_name": "일산올림픽스포츠센터"}, {"address": "경기 고양시 일산동구 장항동 756-3 크리스탈빌딩", "first_date": "2023-07-27", "gp_per_car_28d": "125335.0", "hist_car_count": "1.0", "imaginary": "0", "last_date": "2025-03-19", "lat": "37.659785", "lng": "126.768786", "operation_days": "602", "parking_name": "일산크리스탈빌딩", "region2": "고양시　일산동구", "region3": "장항동", "revenue_per_car_28d": "1159903.0", "state": "0", "utilization_rate": "28.1", "zone_id": "18209", "zone_name": "일산크리스탈빌딩"}, {"address": "경기 고양시 일산동구 장항동 752-1", "first_date": "2023-01-01", "gp_per_car_28d": "242919.0", "hist_car_count": "1.0", "imaginary": "0", "last_date": "2023-12-28", "lat": "37.659908", "lng": "126.76697", "operation_days": "362", "parking_name": "호수그린오피스텔", "region2": "고양시　일산동구", "region3": "장항동", "revenue_per_car_28d": "1355688.0", "state": "0", "utilization_rate": "39.6", "zone_id": "8957", "zone_name": "일산호수공원 앞"}, {"address": "경기 고양시 일산동구 장항동 746", "first_date": "2023-01-01", "gp_per_car_28d": "429139.0", "hist_car_count": "3.0", "imaginary": "0", "last_date": "2025-01-22", "lat": "37.663559", "lng": "126.764687", "operation_days": "753", "parking_name": "장항동(우인아크리움빌2)", "region2": "고양시　일산동구", "region3": "장항동", "revenue_per_car_28d": "1673796.0", "state": "0", "utilization_rate": "39.6", "zone_id": "4429", "zone_name": "장항동(우인아크리움빌2)"}, {"address": "경기 고양시 일산동구 장항동 858 맥클린21 맥클린21 지하2층", "first_date": "2023-01-01", "gp_per_car_28d": "287182.0", "hist_car_count": "1.0", "imaginary": "0", "last_date": "2023-07-08", "lat": "37.657768", "lng": "126.771394", "operation_days": "188", "parking_name": "정발산역 맥클린21", "region2": "고양시　일산동구", "region3": "장항동", "revenue_per_car_28d": "1506854.0", "state": "0", "utilization_rate": "50.1", "zone_id": "12849", "zone_name": "정발산역 맥클린21"}, {"address": "경기 고양시 일산동구 장항동 769-2 루비튜스데이 알라딘 중고서점 건물 지하주차장", "first_date": "2023-01-01", "gp_per_car_28d": "146595.0", "hist_car_count": "1.0", "imaginary": "0", "last_date": "2025-09-26", "lat": "37.659231", "lng": "126.769895", "operation_days": "1000", "parking_name": "정발산역 알라딘중고서점", "region2": "고양시　일산동구", "region3": "장항동", "revenue_per_car_28d": "1206744.0", "state": "0", "utilization_rate": "37.8", "zone_id": "14526", "zone_name": "정발산역 알라딘중고서점"}, {"address": "경기 고양시 일산동구 백석동 1241 (재)한국중독연구재단", "first_date": "2023-07-14", "gp_per_car_28d": "5782.0", "hist_car_count": "2.0", "imaginary": "0", "last_date": "2023-08-04", "lat": "37.645262", "lng": "126.791499", "operation_days": "22", "parking_name": "카프성모병원", "region2": "고양시　일산동구", "region3": "백석동", "revenue_per_car_28d": "957185.0", "state": "0", "utilization_rate": "25.5", "zone_id": "17835", "zone_name": "카프성모병원"}, {"address": "경기 고양시 일산동구 풍동 1275 힘찬프라자", "first_date": "2023-07-07", "gp_per_car_28d": "160336.0", "hist_car_count": "1.0", "imaginary": "0", "last_date": "2024-04-01", "lat": "37.667811", "lng": "126.800417", "operation_days": "270", "parking_name": "풍동 힘찬프라자", "region2": "고양시　일산동구", "region3": "풍동", "revenue_per_car_28d": "1263957.0", "state": "0", "utilization_rate": "39.7", "zone_id": "17769", "zone_name": "풍동 힘찬프라자"}, {"address": "경기 고양시 일산동구 중산동 1802", "first_date": "2023-01-01", "gp_per_car_28d": "426686.0", "hist_car_count": "1.1", "imaginary": "0", "last_date": "2025-01-13", "lat": "37.676251", "lng": "126.785932", "operation_days": "744", "parking_name": "풍산역 2번출구", "region2": "고양시　일산동구", "region3": "중산동", "revenue_per_car_28d": "1430886.0", "state": "0", "utilization_rate": "37.0", "zone_id": "7385", "zone_name": "풍산역 2번출구"}, {"address": "경기 고양시 일산동구 장항동 1801 한류월드 제2공영주차장", "first_date": "2023-01-01", "gp_per_car_28d": "-57424.0", "hist_car_count": "1.0", "imaginary": "0", "last_date": "2023-01-12", "lat": "37.659818", "lng": "126.756337", "operation_days": "12", "parking_name": "한류월드 제2공영주차장", "region2": "고양시　일산동구", "region3": "장항동", "revenue_per_car_28d": "829856.0", "state": "0", "utilization_rate": "22.0", "zone_id": "14758", "zone_name": "한류월드 제2공영주차장"}, {"address": "경기 고양시 일산동구 장항동 754", "first_date": "2023-01-01", "gp_per_car_28d": "371212.0", "hist_car_count": "1.0", "imaginary": "0", "last_date": "2025-01-13", "lat": "37.658794", "lng": "126.768005", "operation_days": "744", "parking_name": "홈플러스 일산점 옆", "region2": "고양시　일산동구", "region3": "장항동", "revenue_per_car_28d": "1337849.0", "state": "0", "utilization_rate": "35.1", "zone_id": "5796", "zone_name": "홈플러스 일산점 옆"}, {"address": "경기 고양시 일산서구 대화동 2239 KINTEX ZONE", "first_date": "2023-07-15", "gp_per_car_28d": "397829.0", "hist_car_count": "1.0", "imaginary": "0", "last_date": "2023-07-20", "lat": "37.674799", "lng": "126.749753", "operation_days": "6", "parking_name": "CU 대화킨텍스존점", "region2": "고양시　일산서구", "region3": "대화동", "revenue_per_car_28d": "1344943.0", "state": "0", "utilization_rate": "28.6", "zone_id": "17862", "zone_name": "CU 대화킨텍스존점"}, {"address": "경기 고양시 일산서구 일산동 957-3 풍원리빙프라자 풍원리빙프라자 지하주차장 지하2층", "first_date": "2023-01-01", "gp_per_car_28d": "137916.0", "hist_car_count": "1.0", "imaginary": "0", "last_date": "2025-04-29", "lat": "37.685961", "lng": "126.765037", "operation_days": "840", "parking_name": "CU 일산동문점", "region2": "고양시　일산서구", "region3": "일산동", "revenue_per_car_28d": "1273726.0", "state": "0", "utilization_rate": "33.7", "zone_id": "13128", "zone_name": "CU 일산동문점"}, {"address": "경기 고양시 일산서구 대화동 2582 대화마을 상가동", "first_date": "2023-07-15", "gp_per_car_28d": "-371686.0", "hist_car_count": "1.0", "imaginary": "0", "last_date": "2023-08-16", "lat": "37.667833", "lng": "126.734028", "operation_days": "33", "parking_name": "CU 킨텍스아이파크점", "region2": "고양시　일산서구", "region3": "대화동", "revenue_per_car_28d": "235501.0", "state": "0", "utilization_rate": "5.5", "zone_id": "17856", "zone_name": "CU 킨텍스아이파크점"}, {"address": "경기 고양시 일산서구 덕이동 272-3", "first_date": "2023-11-07", "gp_per_car_28d": "-31678.0", "hist_car_count": "1.0", "imaginary": "0", "last_date": "2023-12-01", "lat": "37.69443", "lng": "126.760113", "operation_days": "25", "parking_name": "탄현역 아훈주차장", "region2": "고양시　일산서구", "region3": "덕이동", "revenue_per_car_28d": "1235404.0", "state": "0", "utilization_rate": "49.2", "zone_id": "18794", "zone_name": "[레이 EV] 탄현역 1번출구"}, {"address": "경기 고양시 일산서구 대화동 2606 고양 원마운트", "first_date": "2023-01-01", "gp_per_car_28d": "310987.0", "hist_car_count": "1.5", "imaginary": "0", "last_date": "2025-03-26", "lat": "37.665113", "lng": "126.754915", "operation_days": "803", "parking_name": "고양 원마운트", "region2": "고양시　일산서구", "region3": "대화동", "revenue_per_car_28d": "1448268.0", "state": "0", "utilization_rate": "34.5", "zone_id": "13283", "zone_name": "고양 원마운트"}, {"address": "경기 고양시 일산서구 대화동 2606 고양 원마운트", "first_date": "2024-11-27", "gp_per_car_28d": "-217422.0", "hist_car_count": "2.8", "imaginary": "0", "last_date": "2025-10-28", "lat": "37.663913", "lng": "126.754102", "operation_days": "336", "parking_name": "고양 원마운트(운전연수)", "region2": "고양시　일산서구", "region3": "대화동", "revenue_per_car_28d": "281486.0", "state": "0", "utilization_rate": "6.1", "zone_id": "20205", "zone_name": "고양 원마운트(운전연수)"}, {"address": "경기 고양시 일산서구 주엽동 111 뉴월드프라자", "first_date": "2025-08-23", "gp_per_car_28d": "69061.0", "hist_car_count": "1.2", "imaginary": "0", "last_date": "2026-01-16", "lat": "37.669975", "lng": "126.759712", "operation_days": "147", "parking_name": "뉴월드프라자", "region2": "고양시　일산서구", "region3": "주엽동", "revenue_per_car_28d": "1089932.0", "state": "0", "utilization_rate": "24.0", "zone_id": "22531", "zone_name": "뉴월드프라자"}, {"address": "경기 고양시 일산서구 대화동 2207", "first_date": "2023-01-01", "gp_per_car_28d": "277550.0", "hist_car_count": "1.3", "imaginary": "0", "last_date": "2026-02-23", "lat": "37.676903", "lng": "126.747559", "operation_days": "1148", "parking_name": "대화역 5번출구", "region2": "고양시　일산서구", "region3": "대화동", "revenue_per_car_28d": "1550219.0", "state": "0", "utilization_rate": "35.7", "zone_id": "1417", "zone_name": "대화역 5번출구"}, {"address": "경기 고양시 일산서구 주엽동 15 롯데마트 롯데마트 주엽점", "first_date": "2023-01-01", "gp_per_car_28d": "24497.0", "hist_car_count": "1.0", "imaginary": "0", "last_date": "2023-03-14", "lat": "37.673321", "lng": "126.755369", "operation_days": "67", "parking_name": "롯데마트 주엽점", "region2": "고양시　일산서구", "region3": "주엽동", "revenue_per_car_28d": "814354.0", "state": "0", "utilization_rate": "23.9", "zone_id": "14278", "zone_name": "롯데마트 주엽점"}, {"address": "경기 고양시 일산서구 덕이동 1544", "first_date": "2023-01-01", "gp_per_car_28d": "287631.0", "hist_car_count": "1.0", "imaginary": "0", "last_date": "2024-05-27", "lat": "37.698753", "lng": "126.754272", "operation_days": "513", "parking_name": "농협건물 뒤편", "region2": "고양시　일산서구", "region3": "덕이동", "revenue_per_car_28d": "1363581.0", "state": "0", "utilization_rate": "35.1", "zone_id": "6370", "zone_name": "백송초교 옆(덕이동농협)"}, {"address": "경기 고양시 일산서구 탄현동 1484 탄현마을3단지아파트 탄현마을3단지 304동 앞", "first_date": "2023-01-01", "gp_per_car_28d": "284201.0", "hist_car_count": "1.0", "imaginary": "0", "last_date": "2023-06-30", "lat": "37.694964", "lng": "126.765768", "operation_days": "181", "parking_name": "탄현마을3단지 304동 앞", "region2": "고양시　일산서구", "region3": "탄현동", "revenue_per_car_28d": "1309270.0", "state": "0", "utilization_rate": "35.2", "zone_id": "15739", "zone_name": "상탄초등학교 앞"}, {"address": "경기 고양시 일산서구 가좌동 346-6", "first_date": "2024-06-08", "gp_per_car_28d": "175059.0", "hist_car_count": "1.0", "imaginary": "0", "last_date": "2025-02-14", "lat": "37.684926", "lng": "126.722194", "operation_days": "252", "parking_name": "송포초등학교 옆", "region2": "고양시　일산서구", "region3": "가좌동", "revenue_per_car_28d": "1173452.0", "state": "0", "utilization_rate": "25.3", "zone_id": "19408", "zone_name": "송포초등학교 옆"}, {"address": "경기 고양시 일산서구 탄현동 114-10 이마트에브리데이 지상 주차장", "first_date": "2023-01-01", "gp_per_car_28d": "-215325.0", "hist_car_count": "1.0", "imaginary": "0", "last_date": "2023-01-06", "lat": "37.701603", "lng": "126.767239", "operation_days": "6", "parking_name": "이마트에브리데이 탄현동점", "region2": "고양시　일산서구", "region3": "탄현동", "revenue_per_car_28d": "244180.0", "state": "0", "utilization_rate": "25.0", "zone_id": "15596", "zone_name": "이마트에브리데이 탄현동점"}, {"address": "경기 고양시 일산서구 대화동 2600-4 킨텍스 k tree 건물 뒤편 공영주차장", "first_date": "2023-01-01", "gp_per_car_28d": "349993.0", "hist_car_count": "1.0", "imaginary": "0", "last_date": "2025-01-08", "lat": "37.667232", "lng": "126.747336", "operation_days": "739", "parking_name": "전시장 공영주차장", "region2": "고양시　일산서구", "region3": "대화동", "revenue_per_car_28d": "1562646.0", "state": "0", "utilization_rate": "34.3", "zone_id": "13123", "zone_name": "전시장 공영주차장"}, {"address": "경기 고양시 일산서구 주엽동 115", "first_date": "2023-01-01", "gp_per_car_28d": "350687.0", "hist_car_count": "2.9", "imaginary": "0", "last_date": "2024-05-27", "lat": "37.670776", "lng": "126.758914", "operation_days": "513", "parking_name": "대우시티프라자", "region2": "고양시　일산서구", "region3": "주엽동", "revenue_per_car_28d": "1637826.0", "state": "0", "utilization_rate": "40.3", "zone_id": "8208", "zone_name": "주엽역 4번출구"}, {"address": "경기 고양시 일산서구 주엽동 72-1 동신파크 지하 3층", "first_date": "2023-01-01", "gp_per_car_28d": "120271.0", "hist_car_count": "1.0", "imaginary": "0", "last_date": "2024-01-25", "lat": "37.669549", "lng": "126.764307", "operation_days": "381", "parking_name": "일산 동신파크", "region2": "고양시　일산서구", "region3": "주엽동", "revenue_per_car_28d": "1199557.0", "state": "0", "utilization_rate": "35.8", "zone_id": "11276", "zone_name": "주엽역 8번출구(운영종료)"}, {"address": "경기 고양시 일산서구 주엽동 105 주엽역 삼부르네상스 오피스텔", "first_date": "2026-02-06", "gp_per_car_28d": "371878.0", "hist_car_count": "2.0", "imaginary": "0", "last_date": "2026-02-23", "lat": "37.669031", "lng": "126.761876", "operation_days": "18", "parking_name": "주엽역 삼부르네상스", "region2": "고양시　일산서구", "region3": "주엽동", "revenue_per_car_28d": "1297097.0", "state": "0", "utilization_rate": "52.8", "zone_id": "12750", "zone_name": "주엽역 삼부르네상스"}, {"address": "경기 고양시 일산서구 탄현동 1561 탄현제1공영주차장", "first_date": "2023-01-01", "gp_per_car_28d": "329748.0", "hist_car_count": "1.2", "imaginary": "0", "last_date": "2024-12-31", "lat": "37.690723", "lng": "126.761733", "operation_days": "665", "parking_name": "탄현 제1공영주차장", "region2": "고양시　일산서구", "region3": "탄현동", "revenue_per_car_28d": "1604214.0", "state": "0", "utilization_rate": "36.0", "zone_id": "13864", "zone_name": "탄현 제1공영주차장"}, {"address": "경기 고양시 일산서구 탄현동 1589 탄현제3공영주차장", "first_date": "2023-01-01", "gp_per_car_28d": "404294.0", "hist_car_count": "2.5", "imaginary": "0", "last_date": "2024-12-31", "lat": "37.692666", "lng": "126.772101", "operation_days": "730", "parking_name": "탄현 제3공영주차장", "region2": "고양시　일산서구", "region3": "탄현동", "revenue_per_car_28d": "1607761.0", "state": "0", "utilization_rate": "37.6", "zone_id": "13865", "zone_name": "탄현 제3공영주차장"}, {"address": "경기 고양시 일산서구 탄현동 1489 (탄현 제5공영주차장) 탄현 제5공영주차장", "first_date": "2023-01-01", "gp_per_car_28d": "337538.0", "hist_car_count": "3.3", "imaginary": "0", "last_date": "2025-02-28", "lat": "37.6944", "lng": "126.769002", "operation_days": "790", "parking_name": "탄현 제5공영주차장", "region2": "고양시　일산서구", "region3": "탄현동", "revenue_per_car_28d": "1549228.0", "state": "0", "utilization_rate": "37.8", "zone_id": "13618", "zone_name": "탄현 제5공영주차장"}, {"address": "경기 고양시 일산서구 탄현동 121 큰마을대림,현대아파트", "first_date": "2023-01-01", "gp_per_car_28d": "228079.0", "hist_car_count": "1.0", "imaginary": "0", "last_date": "2025-01-22", "lat": "37.701383", "lng": "126.764422", "operation_days": "753", "parking_name": "탄현 큰마을대림현대아파트", "region2": "고양시　일산서구", "region3": "탄현동", "revenue_per_car_28d": "1191408.0", "state": "0", "utilization_rate": "26.1", "zone_id": "16259", "zone_name": "탄현 큰마을대림현대아파트"}, {"address": "경기 고양시 일산서구 탄현동 121 큰마을대림,현대아파트 112동 지하주차장", "first_date": "2023-01-01", "gp_per_car_28d": "222035.0", "hist_car_count": "1.0", "imaginary": "0", "last_date": "2023-02-01", "lat": "37.700162", "lng": "126.762141", "operation_days": "32", "parking_name": "큰마을대림현대아파트 112동", "region2": "고양시　일산서구", "region3": "탄현동", "revenue_per_car_28d": "1088308.0", "state": "0", "utilization_rate": "30.1", "zone_id": "14471", "zone_name": "탄현 호곡초등학교 옆"}, {"address": "경기 고양시 일산서구 덕이동 1521 태영아파트 103동 앞 지상주차장", "first_date": "2023-01-01", "gp_per_car_28d": "128928.0", "hist_car_count": "1.0", "imaginary": "0", "last_date": "2025-01-22", "lat": "37.695071", "lng": "126.757322", "operation_days": "753", "parking_name": "탄현역 태영아파트", "region2": "고양시　일산서구", "region3": "덕이동", "revenue_per_car_28d": "1178428.0", "state": "0", "utilization_rate": "35.5", "zone_id": "10803", "zone_name": "탄현역 태영아파트"}, {"address": "경기 고양시 일산서구 탄현동 1636 탄현역 공영 주차장", "first_date": "2023-01-01", "gp_per_car_28d": "377799.0", "hist_car_count": "1.5", "imaginary": "0", "last_date": "2025-02-28", "lat": "37.694948", "lng": "126.761404", "operation_days": "790", "parking_name": "탄현역 환승주차장", "region2": "고양시　일산서구", "region3": "탄현동", "revenue_per_car_28d": "1621280.0", "state": "0", "utilization_rate": "40.1", "zone_id": "11174", "zone_name": "탄현역 환승주차장"}, {"address": "경기 고양시 일산서구 탄현동 1640", "first_date": "2023-01-01", "gp_per_car_28d": "354842.0", "hist_car_count": "1.0", "imaginary": "0", "last_date": "2025-01-13", "lat": "37.695073", "lng": "126.763593", "operation_days": "744", "parking_name": "탄현제니스스퀘어", "region2": "고양시　일산서구", "region3": "탄현동", "revenue_per_car_28d": "1277721.0", "state": "0", "utilization_rate": "40.8", "zone_id": "1482", "zone_name": "탄현제니스스퀘어"}, {"address": "경기 과천시 별양동 1-10 렉스타운", "first_date": "2024-10-12", "gp_per_car_28d": "192236.0", "hist_car_count": "1.2", "imaginary": "0", "last_date": "2025-09-11", "lat": "37.428281", "lng": "126.992531", "operation_days": "334", "parking_name": "렉스타운", "region2": "과천시", "region3": "별양동", "revenue_per_car_28d": "1472612.0", "state": "1", "utilization_rate": "31.4", "zone_id": "18378", "zone_name": "렉스타운"}, {"address": "경기 광명시 소하동 1342-5", "first_date": "2023-01-01", "gp_per_car_28d": "199131.0", "hist_car_count": "1.0", "imaginary": "0", "last_date": "2023-06-30", "lat": "37.447628", "lng": "126.882278", "operation_days": "171", "parking_name": "노외 공영주차장", "region2": "광명시", "region3": "소하동", "revenue_per_car_28d": "1237633.0", "state": "0", "utilization_rate": "37.1", "zone_id": "1711", "zone_name": "가리대사거리"}, {"address": "경기 광명시 광명동 346-46", "first_date": "2023-01-01", "gp_per_car_28d": "219462.0", "hist_car_count": "2.1", "imaginary": "0", "last_date": "2023-09-15", "lat": "37.472904", "lng": "126.850952", "operation_days": "258", "parking_name": "현대타운", "region2": "광명시", "region3": "광명동", "revenue_per_car_28d": "1466737.0", "state": "0", "utilization_rate": "33.1", "zone_id": "6097", "zone_name": "광명6동삼거리"}, {"address": "경기 광명시 광명동 156-9", "first_date": "2023-01-01", "gp_per_car_28d": "265793.0", "hist_car_count": "3.0", "imaginary": "0", "last_date": "2024-06-25", "lat": "37.479315", "lng": "126.857531", "operation_days": "542", "parking_name": "광명사거리역 10번출구", "region2": "광명시", "region3": "광명동", "revenue_per_car_28d": "1475670.0", "state": "0", "utilization_rate": "36.3", "zone_id": "1832", "zone_name": "광명사거리역 10번출구"}, {"address": "경기 광명시 광명동 158-886 성일제3주차장", "first_date": "2023-01-01", "gp_per_car_28d": "104070.0", "hist_car_count": "1.1", "imaginary": "0", "last_date": "2023-07-03", "lat": "37.479402", "lng": "126.851142", "operation_days": "181", "parking_name": "성일제3주차장", "region2": "광명시", "region3": "광명동", "revenue_per_car_28d": "1149648.0", "state": "0", "utilization_rate": "29.0", "zone_id": "15528", "zone_name": "광명사거리역 5번출구"}, {"address": "경기 광명시 일직동 380-10", "first_date": "2023-01-01", "gp_per_car_28d": "228891.0", "hist_car_count": "18.6", "imaginary": "0", "last_date": "2024-01-02", "lat": "37.413876", "lng": "126.883526", "operation_days": "367", "parking_name": "광명역D 환승주차장", "region2": "광명시", "region3": "일직동", "revenue_per_car_28d": "1457310.0", "state": "0", "utilization_rate": "36.4", "zone_id": "8041", "zone_name": "광명역(KTX) 4번출구"}, {"address": "경기 광명시 일직동 310-1", "first_date": "2023-01-01", "gp_per_car_28d": "355421.0", "hist_car_count": "34.0", "imaginary": "0", "last_date": "2024-10-31", "lat": "37.415164", "lng": "126.88222", "operation_days": "670", "parking_name": "광명역(KTX) B 주차빌딩", "region2": "광명시", "region3": "일직동", "revenue_per_car_28d": "1495081.0", "state": "0", "utilization_rate": "33.7", "zone_id": "16343", "zone_name": "광명역(KTX) B 주차빌딩"}, {"address": "경기 광명시 광명동 289-4 국민은행", "first_date": "2023-01-01", "gp_per_car_28d": "387692.0", "hist_car_count": "1.1", "imaginary": "0", "last_date": "2026-01-16", "lat": "37.474591", "lng": "126.851738", "operation_days": "1112", "parking_name": "국민은행 광명지점", "region2": "광명시", "region3": "광명동", "revenue_per_car_28d": "1722986.0", "state": "0", "utilization_rate": "36.2", "zone_id": "12783", "zone_name": "국민은행 광명지점"}, {"address": "경기 광명시 일직동 509", "first_date": "2025-06-28", "gp_per_car_28d": "-56509.0", "hist_car_count": "1.0", "imaginary": "0", "last_date": "2026-02-13", "lat": "37.4224", "lng": "126.883525", "operation_days": "168", "parking_name": "나이스파크 광명일직점", "region2": "광명시", "region3": "일직동", "revenue_per_car_28d": "932030.0", "state": "0", "utilization_rate": "24.1", "zone_id": "21407", "zone_name": "나이스파크 광명일직점"}, {"address": "경기 광명시 하안동 38 뉴코아아울렛", "first_date": "2023-03-11", "gp_per_car_28d": "397377.0", "hist_car_count": "3.8", "imaginary": "0", "last_date": "2024-08-01", "lat": "37.46115", "lng": "126.879368", "operation_days": "493", "parking_name": "뉴코아아울렛 광명점", "region2": "광명시", "region3": "하안동", "revenue_per_car_28d": "1572269.0", "state": "0", "utilization_rate": "33.9", "zone_id": "12357", "zone_name": "뉴코아아울렛 광명점"}, {"address": "경기 광명시 광명로848번길 18 블로섬 메종 광명", "first_date": "2023-01-01", "gp_per_car_28d": "163094.0", "hist_car_count": "2.0", "imaginary": "0", "last_date": "2023-01-31", "lat": "37.473885", "lng": "126.852698", "operation_days": "31", "parking_name": "블로섬 메종 광명", "region2": "광명시", "region3": "광명동", "revenue_per_car_28d": "1564480.0", "state": "0", "utilization_rate": "34.0", "zone_id": "14153", "zone_name": "새마을시장삼거리"}, {"address": "경기 광명시 광명동 342-5", "first_date": "2023-05-19", "gp_per_car_28d": "168502.0", "hist_car_count": "1.9", "imaginary": "0", "last_date": "2023-10-12", "lat": "37.473422", "lng": "126.852319", "operation_days": "147", "parking_name": "센트럴광명상가 주차장", "region2": "광명시", "region3": "광명동", "revenue_per_car_28d": "1387902.0", "state": "0", "utilization_rate": "28.6", "zone_id": "17437", "zone_name": "센트럴광명상가 주차장"}, {"address": "경기 광명시 소하동 1339-3", "first_date": "2025-03-14", "gp_per_car_28d": "-331276.0", "hist_car_count": "1.0", "imaginary": "0", "last_date": "2025-04-30", "lat": "37.446613", "lng": "126.884554", "operation_days": "48", "parking_name": "이마트 광명소하점", "region2": "광명시", "region3": "소하동", "revenue_per_car_28d": "487365.0", "state": "0", "utilization_rate": "22.5", "zone_id": "13153", "zone_name": "이마트 광명소하점"}, {"address": "경기 광명시 일직동 500", "first_date": "2024-02-02", "gp_per_car_28d": "341481.0", "hist_car_count": "2.0", "imaginary": "0", "last_date": "2024-02-02", "lat": "37.424597", "lng": "126.881985", "operation_days": "1", "parking_name": "이케아 광명점", "region2": "광명시", "region3": "일직동", "revenue_per_car_28d": "1160932.0", "state": "0", "utilization_rate": "38.7", "zone_id": "19073", "zone_name": "이케아 광명점"}, {"address": "경기 광명시 일직동 501", "first_date": "2023-01-01", "gp_per_car_28d": "213145.0", "hist_car_count": "1.9", "imaginary": "0", "last_date": "2025-12-12", "lat": "37.424597", "lng": "126.885908", "operation_days": "1049", "parking_name": "중앙대학교 광명병원", "region2": "광명시", "region3": "일직동", "revenue_per_car_28d": "1372270.0", "state": "0", "utilization_rate": "31.9", "zone_id": "15886", "zone_name": "중앙대학교 광명병원"}, {"address": "경기 광명시 철산동 424", "first_date": "2023-01-01", "gp_per_car_28d": "222559.0", "hist_car_count": "3.0", "imaginary": "0", "last_date": "2023-06-30", "lat": "37.474052", "lng": "126.868912", "operation_days": "181", "parking_name": "한국빌딩 주차장", "region2": "광명시", "region3": "철산동", "revenue_per_car_28d": "1507070.0", "state": "0", "utilization_rate": "40.9", "zone_id": "2722", "zone_name": "철산 로데오거리"}, {"address": "경기 광명시 하안동 38-1", "first_date": "2023-01-01", "gp_per_car_28d": "384864.0", "hist_car_count": "3.0", "imaginary": "0", "last_date": "2025-01-02", "lat": "37.461601", "lng": "126.879829", "operation_days": "733", "parking_name": "하안사거리", "region2": "광명시", "region3": "하안동", "revenue_per_car_28d": "1645076.0", "state": "0", "utilization_rate": "38.3", "zone_id": "446", "zone_name": "하안사거리"}, {"address": "경기 광명시 철산동 384", "first_date": "2025-01-01", "gp_per_car_28d": "163895.0", "hist_car_count": "2.0", "imaginary": "0", "last_date": "2025-01-06", "lat": "37.476236", "lng": "126.869781", "operation_days": "6", "parking_name": "하이파킹 NH농협은행광명시지부", "region2": "광명시", "region3": "철산동", "revenue_per_car_28d": "1690097.0", "state": "0", "utilization_rate": "35.3", "zone_id": "16767", "zone_name": "하이파킹 NH농협은행광명시지부"}, {"address": "경기 광주시 역동 176-68", "first_date": "2023-05-02", "gp_per_car_28d": "246903.0", "hist_car_count": "1.0", "imaginary": "0", "last_date": "2023-12-29", "lat": "37.399848", "lng": "127.25331", "operation_days": "242", "parking_name": "광주역세권 공영주차장", "region2": "광주시", "region3": "역동", "revenue_per_car_28d": "1167425.0", "state": "0", "utilization_rate": "37.3", "zone_id": "17379", "zone_name": "경기광주역 앞 "}, {"address": "경기 광주시 곤지암읍 곤지암리 453-3", "first_date": "2023-01-10", "gp_per_car_28d": "-92613.0", "hist_car_count": "1.0", "imaginary": "0", "last_date": "2023-03-20", "lat": "37.350522", "lng": "127.337528", "operation_days": "70", "parking_name": "곤지암 배수펌프장 공영주차장", "region2": "광주시", "region3": "곤지암읍", "revenue_per_car_28d": "910768.0", "state": "0", "utilization_rate": "25.9", "zone_id": "16907", "zone_name": "곤지암도시공원"}, {"address": "경기 광주시 경안동 125-21", "first_date": "2023-01-01", "gp_per_car_28d": "395147.0", "hist_car_count": "2.0", "imaginary": "0", "last_date": "2024-05-27", "lat": "37.413661", "lng": "127.251081", "operation_days": "506", "parking_name": "셀세모 셀프세차장", "region2": "광주시", "region3": "경안동", "revenue_per_car_28d": "1650215.0", "state": "0", "utilization_rate": "38.1", "zone_id": "13576", "zone_name": "광주시공설운동장 뒤(셀세모)"}, {"address": "경기 광주시 송정동 581", "first_date": "2023-07-02", "gp_per_car_28d": "334238.0", "hist_car_count": "1.7", "imaginary": "0", "last_date": "2023-12-29", "lat": "37.416264", "lng": "127.253484", "operation_days": "181", "parking_name": "송정동마을공영주차장", "region2": "광주시", "region3": "송정동", "revenue_per_car_28d": "1274602.0", "state": "0", "utilization_rate": "29.5", "zone_id": "17702", "zone_name": "광주시공설운동장 앞"}, {"address": "경기 광주시 삼동 262-4", "first_date": "2023-07-29", "gp_per_car_28d": "187232.0", "hist_car_count": "1.0", "imaginary": "0", "last_date": "2024-02-08", "lat": "37.410453", "lng": "127.200546", "operation_days": "195", "parking_name": "대아프라자 주차장", "region2": "광주시", "region3": "삼동", "revenue_per_car_28d": "1282095.0", "state": "0", "utilization_rate": "34.7", "zone_id": "18247", "zone_name": "삼동역 앞"}, {"address": "경기 광주시 신현동 576-3", "first_date": "2023-01-01", "gp_per_car_28d": "314349.0", "hist_car_count": "1.0", "imaginary": "0", "last_date": "2025-01-13", "lat": "37.370875", "lng": "127.161461", "operation_days": "744", "parking_name": "신현3리복지회관 옆", "region2": "광주시", "region3": "신현동", "revenue_per_car_28d": "1318003.0", "state": "0", "utilization_rate": "38.3", "zone_id": "16371", "zone_name": "신현3리복지회관 옆"}, {"address": "경기 광주시 역동 27-15", "first_date": "2023-01-01", "gp_per_car_28d": "191958.0", "hist_car_count": "1.1", "imaginary": "0", "last_date": "2024-01-08", "lat": "37.405635", "lng": "127.260116", "operation_days": "373", "parking_name": "역동 공영주차장", "region2": "광주시", "region3": "역동", "revenue_per_car_28d": "1270764.0", "state": "0", "utilization_rate": "32.4", "zone_id": "15702", "zone_name": "역동 공영주차장"}, {"address": "경기 광주시 경안동 25-3 광주종합터미널 이마트 경기광주점", "first_date": "2025-03-14", "gp_per_car_28d": "249847.0", "hist_car_count": "2.5", "imaginary": "0", "last_date": "2026-01-30", "lat": "37.409568", "lng": "127.261274", "operation_days": "323", "parking_name": "이마트 경기광주점", "region2": "광주시", "region3": "경안동", "revenue_per_car_28d": "1290957.0", "state": "0", "utilization_rate": "37.4", "zone_id": "20601", "zone_name": "이마트 경기광주점"}, {"address": "경기 광주시 능평동 97-2", "first_date": "2025-09-26", "gp_per_car_28d": "96463.0", "hist_car_count": "1.0", "imaginary": "0", "last_date": "2025-11-21", "lat": "37.347677", "lng": "127.181689", "operation_days": "57", "parking_name": "이마트24 오포본점", "region2": "광주시", "region3": "능평동", "revenue_per_car_28d": "1085916.0", "state": "0", "utilization_rate": "28.9", "zone_id": "22639", "zone_name": "이마트24 오포본점"}, {"address": "경기 광주시 오포읍 신현리 790", "first_date": "2023-01-01", "gp_per_car_28d": "302997.0", "hist_car_count": "2.0", "imaginary": "0", "last_date": "2024-01-31", "lat": "37.356344", "lng": "127.145706", "operation_days": "396", "parking_name": "이마트에브리데이 오포점", "region2": "광주시", "region3": "오포읍", "revenue_per_car_28d": "1310233.0", "state": "0", "utilization_rate": "37.3", "zone_id": "15539", "zone_name": "이마트에브리데이 오포점(운영종료)"}, {"address": "경기 광주시 탄벌동 9-13", "first_date": "2023-01-01", "gp_per_car_28d": "-117281.0", "hist_car_count": "1.0", "imaginary": "0", "last_date": "2023-01-16", "lat": "37.41974", "lng": "127.246666", "operation_days": "16", "parking_name": "경기광주점 전자랜드 주차장", "region2": "광주시", "region3": "탄벌동", "revenue_per_car_28d": "813578.0", "state": "0", "utilization_rate": "35.7", "zone_id": "10250", "zone_name": "전자랜드 경기광주점"}, {"address": "경기 광주시 초월읍 쌍동리 209-1", "first_date": "2023-01-01", "gp_per_car_28d": "391881.0", "hist_car_count": "4.9", "imaginary": "0", "last_date": "2026-03-28", "lat": "37.373798", "lng": "127.299286", "operation_days": "1183", "parking_name": "초월역 코레일주차장", "region2": "광주시", "region3": "초월읍", "revenue_per_car_28d": "1555059.0", "state": "1", "utilization_rate": "36.4", "zone_id": "5561", "zone_name": "초월역(경강선)"}, {"address": "경기 광주시 태전동 428-22 ", "first_date": "2023-01-01", "gp_per_car_28d": "-64728.0", "hist_car_count": "1.0", "imaginary": "0", "last_date": "2023-01-31", "lat": "37.398084", "lng": "127.215757", "operation_days": "31", "parking_name": "펠리체빌 104동", "region2": "광주시", "region3": "태전동", "revenue_per_car_28d": "652914.0", "state": "0", "utilization_rate": "20.9", "zone_id": "14653", "zone_name": "태전동 펠리체빌"}, {"address": "경기 광주시 태전동 87-94", "first_date": "2023-05-05", "gp_per_car_28d": "10419.0", "hist_car_count": "1.8", "imaginary": "0", "last_date": "2023-05-10", "lat": "37.382231", "lng": "127.228514", "operation_days": "6", "parking_name": "태전 퍼스트센트힐", "region2": "광주시", "region3": "태전동", "revenue_per_car_28d": "769155.0", "state": "0", "utilization_rate": "26.6", "zone_id": "17377", "zone_name": "태전중학교 앞"}, {"address": "경기 광주시 오포읍 신현리 701-7", "first_date": "2023-01-01", "gp_per_car_28d": "177276.0", "hist_car_count": "1.0", "imaginary": "0", "last_date": "2025-03-31", "lat": "37.35971", "lng": "127.154464", "operation_days": "818", "parking_name": "현대오일뱅크 분당현대주유소", "region2": "광주시", "region3": "오포읍", "revenue_per_car_28d": "1242557.0", "state": "0", "utilization_rate": "35.5", "zone_id": "12419", "zone_name": "현대오일뱅크 분당현대주유소"}, {"address": "경기 구리시 갈매동 532 지상 3층 (지정 주차면)", "first_date": "2024-08-17", "gp_per_car_28d": "140370.0", "hist_car_count": "2.3", "imaginary": "0", "last_date": "2025-06-30", "lat": "37.637708", "lng": "127.122942", "operation_days": "318", "parking_name": "갈매부동산타운", "region2": "구리시", "region3": "갈매동", "revenue_per_car_28d": "1337659.0", "state": "0", "utilization_rate": "29.3", "zone_id": "19844", "zone_name": "갈매부동산타운"}, {"address": "경기 구리시 갈매동 607", "first_date": "2023-01-01", "gp_per_car_28d": "154448.0", "hist_car_count": "1.6", "imaginary": "0", "last_date": "2025-10-29", "lat": "37.631668", "lng": "127.115294", "operation_days": "973", "parking_name": "갈매역 1번출구(갈매중심타워오피스텔)", "region2": "구리시", "region3": "갈매동", "revenue_per_car_28d": "1306700.0", "state": "0", "utilization_rate": "32.2", "zone_id": "15687", "zone_name": "갈매역 1번출구(갈매중심타워오피스텔)"}, {"address": "경기 구리시 교문동 808  덕현아파트", "first_date": "2023-01-01", "gp_per_car_28d": "179346.0", "hist_car_count": "1.0", "imaginary": "0", "last_date": "2023-11-14", "lat": "37.589393", "lng": "127.13296", "operation_days": "318", "parking_name": "덕현아파트 110동 ", "region2": "구리시", "region3": "교문동", "revenue_per_car_28d": "986001.0", "state": "0", "utilization_rate": "29.5", "zone_id": "12193", "zone_name": "교문중학교 앞"}, {"address": "경기 구리시 인창동 66 동구릉", "first_date": "2023-06-02", "gp_per_car_28d": "20545.0", "hist_car_count": "1.0", "imaginary": "0", "last_date": "2024-06-03", "lat": "37.616828", "lng": "127.136848", "operation_days": "359", "parking_name": "구리 동구릉", "region2": "구리시", "region3": "인창동", "revenue_per_car_28d": "983066.0", "state": "0", "utilization_rate": "26.5", "zone_id": "17518", "zone_name": "구리 동구릉"}, {"address": "경기 구리시 인창동 651-27", "first_date": "2023-01-01", "gp_per_car_28d": "367279.0", "hist_car_count": "1.0", "imaginary": "0", "last_date": "2025-06-30", "lat": "37.609343", "lng": "127.131523", "operation_days": "883", "parking_name": "구리 아름마을원일아파트", "region2": "구리시", "region3": "인창동", "revenue_per_car_28d": "1386918.0", "state": "0", "utilization_rate": "32.5", "zone_id": "12273", "zone_name": "구리 아름마을원일아파트"}, {"address": "경기 구리시 수택동 370-17", "first_date": "2023-01-01", "gp_per_car_28d": "6368.0", "hist_car_count": "1.0", "imaginary": "0", "last_date": "2023-02-06", "lat": "37.600048", "lng": "127.136314", "operation_days": "37", "parking_name": "은산주차장", "region2": "구리시", "region3": "수택동", "revenue_per_car_28d": "1250625.0", "state": "0", "utilization_rate": "36.9", "zone_id": "4831", "zone_name": "구리 중앙예식장앞교차로"}, {"address": "경기 구리시 교문동 809-1 하나아파트", "first_date": "2023-04-12", "gp_per_car_28d": "317963.0", "hist_car_count": "1.0", "imaginary": "0", "last_date": "2023-07-17", "lat": "37.590622", "lng": "127.136975", "operation_days": "97", "parking_name": "하나아파트 209동 앞", "region2": "구리시", "region3": "교문동", "revenue_per_car_28d": "1320484.0", "state": "0", "utilization_rate": "37.6", "zone_id": "17233", "zone_name": "구리 하나아파트"}, {"address": "경기 구리시 갈매동 552-6", "first_date": "2024-04-05", "gp_per_car_28d": "229883.0", "hist_car_count": "2.8", "imaginary": "0", "last_date": "2024-06-08", "lat": "37.634769", "lng": "127.123344", "operation_days": "65", "parking_name": "구리갈매 아너시티", "region2": "구리시", "region3": "갈매동", "revenue_per_car_28d": "1449118.0", "state": "0", "utilization_rate": "32.4", "zone_id": "19223", "zone_name": "구리갈매 아너시티 상가"}, {"address": "경기 구리시 인창동 239-3", "first_date": "2023-01-01", "gp_per_car_28d": "297385.0", "hist_car_count": "3.8", "imaginary": "0", "last_date": "2025-05-17", "lat": "37.604244", "lng": "127.145592", "operation_days": "599", "parking_name": "구리역 1번출구", "region2": "구리시", "region3": "교문동", "revenue_per_car_28d": "1439582.0", "state": "0", "utilization_rate": "35.6", "zone_id": "10620", "zone_name": "구리역 1번출구"}, {"address": "경기 구리시 교문동 766-1", "first_date": "2023-01-01", "gp_per_car_28d": "291697.0", "hist_car_count": "1.0", "imaginary": "0", "last_date": "2024-04-17", "lat": "37.593682", "lng": "127.137041", "operation_days": "473", "parking_name": "한성아파트 107동 앞", "region2": "구리시", "region3": "교문동", "revenue_per_car_28d": "1253196.0", "state": "0", "utilization_rate": "25.5", "zone_id": "4551", "zone_name": "구리한성아파트 "}, {"address": "경기 구리시 수택동 534 (주)하이마트수택점", "first_date": "2023-01-01", "gp_per_car_28d": "393999.0", "hist_car_count": "1.5", "imaginary": "0", "last_date": "2025-10-03", "lat": "37.602197", "lng": "127.144778", "operation_days": "963", "parking_name": "롯데 하이마트 구리역점", "region2": "구리시", "region3": "수택동", "revenue_per_car_28d": "1727784.0", "state": "0", "utilization_rate": "37.7", "zone_id": "16642", "zone_name": "롯데 하이마트 구리역점"}, {"address": "경기 구리시 인창동 419-7 구리 복합몰(롯데아울렛 구리점)", "first_date": "2024-08-31", "gp_per_car_28d": "102225.0", "hist_car_count": "1.0", "imaginary": "0", "last_date": "2025-06-26", "lat": "37.611861", "lng": "127.140544", "operation_days": "290", "parking_name": "롯데아울렛 구리점", "region2": "구리시", "region3": "인창동", "revenue_per_car_28d": "1068416.0", "state": "0", "utilization_rate": "27.3", "zone_id": "16338", "zone_name": "롯데아울렛 구리점"}, {"address": "경기 구리시 수택동 379-12", "first_date": "2023-01-01", "gp_per_car_28d": "266515.0", "hist_car_count": "1.8", "imaginary": "0", "last_date": "2025-12-31", "lat": "37.59752", "lng": "127.138514", "operation_days": "1096", "parking_name": "보원탄산천 옆", "region2": "구리시", "region3": "수택동", "revenue_per_car_28d": "1407637.0", "state": "0", "utilization_rate": "34.0", "zone_id": "16018", "zone_name": "보원탄산천 옆"}, {"address": "경기 구리시 수택동 424-21", "first_date": "2023-01-04", "gp_per_car_28d": "126892.0", "hist_car_count": "1.4", "imaginary": "0", "last_date": "2025-07-11", "lat": "37.597904", "lng": "127.142738", "operation_days": "913", "parking_name": "수택동사거리", "region2": "구리시", "region3": "수택동", "revenue_per_car_28d": "1220895.0", "state": "0", "utilization_rate": "33.7", "zone_id": "2211", "zone_name": "수택동사거리"}, {"address": "경기 구리시 토평동 1003", "first_date": "2023-01-01", "gp_per_car_28d": "72950.0", "hist_car_count": "1.0", "imaginary": "0", "last_date": "2025-07-11", "lat": "37.592943", "lng": "127.151674", "operation_days": "843", "parking_name": "수택초등학교 앞", "region2": "구리시", "region3": "토평동", "revenue_per_car_28d": "1202481.0", "state": "0", "utilization_rate": "28.0", "zone_id": "14760", "zone_name": "수택초등학교 앞"}, {"address": "경기 구리시 갈매동 529-1 비젼Ⅱ프라자", "first_date": "2023-01-01", "gp_per_car_28d": "624485.0", "hist_car_count": "1.0", "imaginary": "0", "last_date": "2023-01-11", "lat": "37.636932", "lng": "127.121636", "operation_days": "11", "parking_name": "케이엠파크 비젼Ⅱ프라자", "region2": "구리시", "region3": "갈매동", "revenue_per_car_28d": "1838994.0", "state": "0", "utilization_rate": "37.7", "zone_id": "12519", "zone_name": "이마트에브리데이 구리갈매점 옆(운영종료)"}, {"address": "경기 구리시 인창동 527-21", "first_date": "2023-01-01", "gp_per_car_28d": "124029.0", "hist_car_count": "1.0", "imaginary": "0", "last_date": "2023-01-02", "lat": "37.605666", "lng": "127.133807", "operation_days": "2", "parking_name": "케이엠파크 화광빌딩", "region2": "구리시", "region3": "인창동", "revenue_per_car_28d": "742848.0", "state": "0", "utilization_rate": "34.1", "zone_id": "14248", "zone_name": "인창초등학교 옆"}, {"address": "경기 구리시 토평동 270-4", "first_date": "2024-08-09", "gp_per_car_28d": "-65401.0", "hist_car_count": "1.0", "imaginary": "0", "last_date": "2024-12-18", "lat": "37.58709", "lng": "127.148385", "operation_days": "124", "parking_name": "토평초등학교 옆", "region2": "구리시", "region3": "토평동", "revenue_per_car_28d": "744964.0", "state": "0", "utilization_rate": "14.5", "zone_id": "19804", "zone_name": "토평초등학교 옆"}, {"address": "경기 구리시 교문동 435-1 한국타이어(주)동부지점 1층", "first_date": "2023-01-01", "gp_per_car_28d": "192065.0", "hist_car_count": "1.0", "imaginary": "0", "last_date": "2023-03-15", "lat": "37.589719", "lng": "127.130333", "operation_days": "74", "parking_name": "티스테이션 구리다산점", "region2": "구리시", "region3": "교문동", "revenue_per_car_28d": "1191558.0", "state": "0", "utilization_rate": "25.9", "zone_id": "16348", "zone_name": "티스테이션 구리다산점"}, {"address": "경기 군포시 산본동 310-2 e편한세상 금정역 에코센트럴 아파트", "first_date": "2023-01-01", "gp_per_car_28d": "392082.0", "hist_car_count": "1.0", "imaginary": "0", "last_date": "2024-04-17", "lat": "37.365931", "lng": "126.93694", "operation_days": "473", "parking_name": "에코센트럴 아파트 101동", "region2": "군포시", "region3": "산본동", "revenue_per_car_28d": "1406707.0", "state": "0", "utilization_rate": "32.4", "zone_id": "15368", "zone_name": "군포 한얼공원 옆"}, {"address": "경기 군포시 산본동 1231", "first_date": "2023-01-01", "gp_per_car_28d": "232352.0", "hist_car_count": "1.0", "imaginary": "0", "last_date": "2023-05-31", "lat": "37.357537", "lng": "126.932325", "operation_days": "151", "parking_name": "뉴코아아울렛 산본점 주차장", "region2": "군포시", "region3": "산본동", "revenue_per_car_28d": "1366166.0", "state": "0", "utilization_rate": "34.4", "zone_id": "7601", "zone_name": "뉴코아아울렛 산본점"}, {"address": "경기 군포시 부곡동 1126", "first_date": "2023-01-01", "gp_per_car_28d": "271311.0", "hist_car_count": "1.0", "imaginary": "0", "last_date": "2023-11-07", "lat": "37.324394", "lng": "126.942811", "operation_days": "311", "parking_name": "휴먼시아 203동 주차장", "region2": "군포시", "region3": "부곡동", "revenue_per_car_28d": "1329433.0", "state": "0", "utilization_rate": "35.8", "zone_id": "8931", "zone_name": "부곡중앙초등학교 옆"}, {"address": "경기 군포시 산본동 1240", "first_date": "2023-01-01", "gp_per_car_28d": "202643.0", "hist_car_count": "1.0", "imaginary": "0", "last_date": "2024-03-19", "lat": "37.367062", "lng": "126.933784", "operation_days": "444", "parking_name": "래미안하이어스 113동", "region2": "군포시", "region3": "산본동", "revenue_per_car_28d": "1120921.0", "state": "0", "utilization_rate": "29.4", "zone_id": "3564", "zone_name": "산본시장사거리"}, {"address": "경기 군포시 당동 1030-5", "first_date": "2024-06-08", "gp_per_car_28d": "130843.0", "hist_car_count": "1.3", "imaginary": "0", "last_date": "2026-03-13", "lat": "37.341528", "lng": "126.93659", "operation_days": "644", "parking_name": "용호고등학교 옆", "region2": "군포시", "region3": "당동", "revenue_per_car_28d": "1261739.0", "state": "0", "utilization_rate": "31.9", "zone_id": "19420", "zone_name": "용호고등학교 옆"}, {"address": "경기 군포시 당동 784-5", "first_date": "2023-01-01", "gp_per_car_28d": "449550.0", "hist_car_count": "2.5", "imaginary": "0", "last_date": "2025-12-31", "lat": "37.350981", "lng": "126.945172", "operation_days": "1096", "parking_name": "이마트에브리데이 당동점", "region2": "군포시", "region3": "당동", "revenue_per_car_28d": "1781895.0", "state": "0", "utilization_rate": "35.5", "zone_id": "15605", "zone_name": "이마트에브리데이 당동점"}, {"address": "경기 군포시 당동 970-1", "first_date": "2023-01-01", "gp_per_car_28d": "259752.0", "hist_car_count": "2.0", "imaginary": "0", "last_date": "2023-09-26", "lat": "37.344936", "lng": "126.938472", "operation_days": "269", "parking_name": "이마트에브리데이 용호점", "region2": "군포시", "region3": "당동", "revenue_per_car_28d": "1321044.0", "state": "0", "utilization_rate": "31.2", "zone_id": "15606", "zone_name": "이마트에브리데이 용호점"}, {"address": "경기 김포시 마산동 616-3 한강신도시레이크에일린의뜰", "first_date": "2023-07-15", "gp_per_car_28d": "81603.0", "hist_car_count": "1.0", "imaginary": "0", "last_date": "2025-06-24", "lat": "37.64331", "lng": "126.639414", "operation_days": "696", "parking_name": "CU 마산에뜰점", "region2": "김포시", "region3": "마산동", "revenue_per_car_28d": "1110207.0", "state": "0", "utilization_rate": "32.8", "zone_id": "17861", "zone_name": "CU 마산에뜰점"}, {"address": "경기 김포시 북변동 418-3 유진빌딩", "first_date": "2023-01-01", "gp_per_car_28d": "147954.0", "hist_car_count": "1.0", "imaginary": "0", "last_date": "2024-11-22", "lat": "37.623074", "lng": "126.711543", "operation_days": "692", "parking_name": "CU 북변제일점", "region2": "김포시", "region3": "북변동", "revenue_per_car_28d": "1152115.0", "state": "0", "utilization_rate": "37.0", "zone_id": "10296", "zone_name": "CU 북변제일점"}, {"address": "경기 김포시 장기동 2039-2 프레즌스빌딩", "first_date": "2023-01-01", "gp_per_car_28d": "285611.0", "hist_car_count": "1.0", "imaginary": "0", "last_date": "2025-05-31", "lat": "37.639319", "lng": "126.674782", "operation_days": "872", "parking_name": "가현초등학교 앞", "region2": "김포시", "region3": "장기동", "revenue_per_car_28d": "1435117.0", "state": "0", "utilization_rate": "39.1", "zone_id": "11913", "zone_name": "가현초등학교 앞"}, {"address": "경기 김포시 감정동 694 푸른마을(신안실크밸리2차아파트)", "first_date": "2023-02-24", "gp_per_car_28d": "-29254.0", "hist_car_count": "1.0", "imaginary": "0", "last_date": "2023-03-24", "lat": "37.617521", "lng": "126.703911", "operation_days": "29", "parking_name": "푸른마을2차 204동 앞", "region2": "김포시", "region3": "감정동", "revenue_per_car_28d": "865213.0", "state": "0", "utilization_rate": "26.9", "zone_id": "17100", "zone_name": "감정 푸른마을신안실크밸리 2차"}, {"address": "경기 김포시 감정동 696 중봉마을 신안실크밸리 315동 라인 지하주차장", "first_date": "2023-01-17", "gp_per_car_28d": "252568.0", "hist_car_count": "1.0", "imaginary": "0", "last_date": "2023-07-19", "lat": "37.621863", "lng": "126.693839", "operation_days": "184", "parking_name": "신안실크밸리아파트 315동 라인 지하주차장", "region2": "김포시", "region3": "감정동", "revenue_per_car_28d": "1198681.0", "state": "0", "utilization_rate": "38.5", "zone_id": "16961", "zone_name": "감정초등학교 옆"}, {"address": "경기 김포시 고촌읍 신곡리 0", "first_date": "2023-01-01", "gp_per_car_28d": "-52297.0", "hist_car_count": "1.2", "imaginary": "0", "last_date": "2025-03-19", "lat": "37.593216", "lng": "126.7639", "operation_days": "160", "parking_name": "고촌 예담프라자", "region2": "김포시", "region3": "고촌읍", "revenue_per_car_28d": "725935.0", "state": "0", "utilization_rate": "21.9", "zone_id": "16233", "zone_name": "고촌 예담프라자"}, {"address": "경기 김포시 고촌읍 신곡리 569-6 고촌농협 고촌 농협 주차장", "first_date": "2023-01-01", "gp_per_car_28d": "274985.0", "hist_car_count": "3.4", "imaginary": "0", "last_date": "2025-05-02", "lat": "37.600995", "lng": "126.769868", "operation_days": "852", "parking_name": "고촌농협", "region2": "김포시", "region3": "고촌읍", "revenue_per_car_28d": "1423524.0", "state": "0", "utilization_rate": "35.1", "zone_id": "12821", "zone_name": "고촌농협"}, {"address": "경기 김포시 고촌읍 신곡리 1065", "first_date": "2024-04-26", "gp_per_car_28d": "86383.0", "hist_car_count": "2.0", "imaginary": "0", "last_date": "2024-04-30", "lat": "37.60325", "lng": "126.768781", "operation_days": "5", "parking_name": "루체스타라펠리체 오피스텔", "region2": "김포시", "region3": "고촌읍", "revenue_per_car_28d": "1322777.0", "state": "0", "utilization_rate": "15.6", "zone_id": "16865", "zone_name": "고촌역 1번출구"}, {"address": "경기 김포시 고촌읍 신곡리 1067-2", "first_date": "2024-07-03", "gp_per_car_28d": "81535.0", "hist_car_count": "1.5", "imaginary": "0", "last_date": "2025-03-28", "lat": "37.602906", "lng": "126.769494", "operation_days": "269", "parking_name": "고촌역 1번출구 (라르플레이스)", "region2": "김포시", "region3": "고촌읍", "revenue_per_car_28d": "1148550.0", "state": "1", "utilization_rate": "34.8", "zone_id": "19575", "zone_name": "고촌역 1번출구 (라르플레이스)"}, {"address": "경기 김포시 고촌읍 신곡리 532-65", "first_date": "2025-11-01", "gp_per_car_28d": "140935.0", "hist_car_count": "3.7", "imaginary": "3", "last_date": "2025-12-05", "lat": "37.600367", "lng": "126.771686", "operation_days": "35", "parking_name": "고촌헤센스마트 오피스텔", "region2": "김포시", "region3": "고촌읍", "revenue_per_car_28d": "1008713.0", "state": "0", "utilization_rate": "33.8", "zone_id": "22689", "zone_name": "고촌헤센스마트 오피스텔"}, {"address": "경기 김포시 구래동 6871-45", "first_date": "2023-08-29", "gp_per_car_28d": "233153.0", "hist_car_count": "1.0", "imaginary": "0", "last_date": "2025-01-24", "lat": "37.642381", "lng": "126.620197", "operation_days": "515", "parking_name": "골든루체뷰1차 오피스텔", "region2": "김포시", "region3": "구래동", "revenue_per_car_28d": "1440995.0", "state": "0", "utilization_rate": "41.6", "zone_id": "18444", "zone_name": "골든루체뷰1차 오피스텔"}, {"address": "경기 김포시 구래동 6878-15 에이스프라자", "first_date": "2023-01-01", "gp_per_car_28d": "277858.0", "hist_car_count": "1.9", "imaginary": "0", "last_date": "2025-06-20", "lat": "37.642686", "lng": "126.622209", "operation_days": "902", "parking_name": "구래 에이스프라자", "region2": "김포시", "region3": "구래동", "revenue_per_car_28d": "1415117.0", "state": "0", "utilization_rate": "33.8", "zone_id": "13386", "zone_name": "구래 에이스프라자"}, {"address": "경기 김포시 장기동 2083-4", "first_date": "2023-07-25", "gp_per_car_28d": "-14176.0", "hist_car_count": "1.0", "imaginary": "0", "last_date": "2024-02-15", "lat": "37.63807", "lng": "126.680149", "operation_days": "177", "parking_name": "금광하이테크시티 지식산업센터", "region2": "김포시", "region3": "장기동", "revenue_per_car_28d": "1114109.0", "state": "0", "utilization_rate": "30.2", "zone_id": "18176", "zone_name": "금광하이테크시티 지식산업센터"}, {"address": "경기 김포시 구래동 6871-36 더럭스나인 D동 지하 4층", "first_date": "2023-01-01", "gp_per_car_28d": "366093.0", "hist_car_count": "1.7", "imaginary": "0", "last_date": "2023-08-31", "lat": "37.644572", "lng": "126.618828", "operation_days": "243", "parking_name": "김포 더럭스나인D동", "region2": "김포시", "region3": "구래동", "revenue_per_car_28d": "1444727.0", "state": "0", "utilization_rate": "33.1", "zone_id": "15790", "zone_name": "김포 더럭스나인 D동"}, {"address": "경기 김포시 구래동 6871-57 연세 두애틱 오피스텔", "first_date": "2023-01-01", "gp_per_car_28d": "437505.0", "hist_car_count": "2.4", "imaginary": "0", "last_date": "2023-08-31", "lat": "37.641489", "lng": "126.619764", "operation_days": "243", "parking_name": "김포 두애틱 오피스텔", "region2": "김포시", "region3": "구래동", "revenue_per_car_28d": "1801044.0", "state": "0", "utilization_rate": "36.0", "zone_id": "16153", "zone_name": "김포 두애틱 오피스텔"}, {"address": "경기 김포시 장기동 2011-3 스타비아 호텔", "first_date": "2023-01-01", "gp_per_car_28d": "107392.0", "hist_car_count": "1.1", "imaginary": "0", "last_date": "2024-07-18", "lat": "37.640133", "lng": "126.684787", "operation_days": "558", "parking_name": "김포 스타비아호텔", "region2": "김포시", "region3": "장기동", "revenue_per_car_28d": "1016693.0", "state": "0", "utilization_rate": "30.6", "zone_id": "13870", "zone_name": "김포 스타비아호텔"}, {"address": "경기 김포시 풍무동 759 유현마을현대프라임빌아파트 216동 앞 지상주차장", "first_date": "2023-01-01", "gp_per_car_28d": "52635.0", "hist_car_count": "1.0", "imaginary": "0", "last_date": "2023-02-23", "lat": "37.599727", "lng": "126.729401", "operation_days": "54", "parking_name": "유현마을현대프라임빌 216동 앞", "region2": "김포시", "region3": "풍무동", "revenue_per_car_28d": "997737.0", "state": "0", "utilization_rate": "45.2", "zone_id": "14711", "zone_name": "김포 유현마을현대프라임빌"}, {"address": "경기 김포시 장기동 2025-3", "first_date": "2024-07-26", "gp_per_car_28d": "168990.0", "hist_car_count": "2.0", "imaginary": "0", "last_date": "2024-08-13", "lat": "37.63945", "lng": "126.680045", "operation_days": "19", "parking_name": "김포경찰서 옆", "region2": "김포시", "region3": "장기동", "revenue_per_car_28d": "981077.0", "state": "0", "utilization_rate": "34.1", "zone_id": "19743", "zone_name": "김포경찰서 옆"}, {"address": "경기 김포시 장기동 2199", "first_date": "2023-01-01", "gp_per_car_28d": "-102707.0", "hist_car_count": "1.0", "imaginary": "0", "last_date": "2023-04-01", "lat": "37.635028", "lng": "126.680158", "operation_days": "91", "parking_name": "감정지구 자이에비뉴2 주차장", "region2": "김포시", "region3": "장기동", "revenue_per_car_28d": "835845.0", "state": "0", "utilization_rate": "22.2", "zone_id": "16466", "zone_name": "김포금빛초등학교 옆"}, {"address": "경기 김포시 걸포동 1588 김포농협 하나로마트 본점 지상주차장", "first_date": "2023-01-01", "gp_per_car_28d": "-404602.0", "hist_car_count": "1.0", "imaginary": "0", "last_date": "2023-01-03", "lat": "37.631599", "lng": "126.71285", "operation_days": "3", "parking_name": "김포농협 (동문,서문) 주차장", "region2": "김포시", "region3": "걸포동", "revenue_per_car_28d": "0.0", "state": "0", "utilization_rate": "28.9", "zone_id": "14969", "zone_name": "김포농협 하나로마트 본점"}, {"address": "경기 김포시 마산동 621-15", "first_date": "2023-01-01", "gp_per_car_28d": "204691.0", "hist_car_count": "1.0", "imaginary": "0", "last_date": "2023-11-16", "lat": "37.641114", "lng": "126.643989", "operation_days": "320", "parking_name": "김포 마산 골든하임오피스텔", "region2": "김포시", "region3": "마산동", "revenue_per_car_28d": "1079278.0", "state": "0", "utilization_rate": "23.1", "zone_id": "16263", "zone_name": "김포마산역 4번출구"}, {"address": "경기 김포시 사우동 857", "first_date": "2023-01-01", "gp_per_car_28d": "254514.0", "hist_car_count": "1.0", "imaginary": "0", "last_date": "2024-09-30", "lat": "37.624582", "lng": "126.725173", "operation_days": "639", "parking_name": "김포시보건소 옆", "region2": "김포시", "region3": "사우동", "revenue_per_car_28d": "1175739.0", "state": "0", "utilization_rate": "33.6", "zone_id": "9507", "zone_name": "김포시보건소 옆"}, {"address": "경기 김포시 운양동 1428-2", "first_date": "2023-01-01", "gp_per_car_28d": "196758.0", "hist_car_count": "1.6", "imaginary": "0", "last_date": "2024-08-03", "lat": "37.645412", "lng": "126.680634", "operation_days": "581", "parking_name": "김포우체국 옆", "region2": "김포시", "region3": "장기동", "revenue_per_car_28d": "1279618.0", "state": "0", "utilization_rate": "33.0", "zone_id": "4317", "zone_name": "김포우체국 옆"}, {"address": "경기 김포시 운양동 1297-7 한강프라자 김포 한강프라자 지하 3층", "first_date": "2023-01-01", "gp_per_car_28d": "80899.0", "hist_car_count": "1.0", "imaginary": "0", "last_date": "2024-11-21", "lat": "37.654794", "lng": "126.683427", "operation_days": "691", "parking_name": "김포운양 한강프라자", "region2": "김포시", "region3": "운양동", "revenue_per_car_28d": "1177140.0", "state": "0", "utilization_rate": "33.4", "zone_id": "12748", "zone_name": "김포운양 한강프라자"}, {"address": "경기 김포시 통진읍 마송리 521-1 김포 성원프라자", "first_date": "2023-01-01", "gp_per_car_28d": "382908.0", "hist_car_count": "4.2", "imaginary": "0", "last_date": "2023-08-16", "lat": "37.688869", "lng": "126.598206", "operation_days": "228", "parking_name": "김포 성원프라자", "region2": "김포시", "region3": "통진읍", "revenue_per_car_28d": "1717472.0", "state": "0", "utilization_rate": "36.6", "zone_id": "12975", "zone_name": "김포통진 성원프라자"}, {"address": "경기 김포시 구래동 6887-5", "first_date": "2024-08-31", "gp_per_car_28d": "99562.0", "hist_car_count": "1.0", "imaginary": "0", "last_date": "2025-03-21", "lat": "37.646107", "lng": "126.633349", "operation_days": "202", "parking_name": "김포한강 호수공원 옆", "region2": "김포시", "region3": "구래동", "revenue_per_car_28d": "1057269.0", "state": "0", "utilization_rate": "37.1", "zone_id": "19889", "zone_name": "김포한강 호수공원 옆"}, {"address": "경기 김포시 구래동 6875-9 502동", "first_date": "2023-01-01", "gp_per_car_28d": "327924.0", "hist_car_count": "1.1", "imaginary": "0", "last_date": "2025-01-13", "lat": "37.648295", "lng": "126.632637", "operation_days": "743", "parking_name": "김포한강LH호수마을5단지", "region2": "김포시", "region3": "구래동", "revenue_per_car_28d": "1292606.0", "state": "0", "utilization_rate": "38.6", "zone_id": "14796", "zone_name": "김포한강LH호수마을5단지"}, {"address": "경기 김포시 구래동 6874-23", "first_date": "2024-10-19", "gp_per_car_28d": "-200197.0", "hist_car_count": "1.0", "imaginary": "0", "last_date": "2025-04-29", "lat": "37.650742", "lng": "126.633265", "operation_days": "186", "parking_name": "김포호수초등학교 앞", "region2": "김포시", "region3": "구래동", "revenue_per_car_28d": "794837.0", "state": "0", "utilization_rate": "25.6", "zone_id": "11588", "zone_name": "김포호수초등학교 앞"}, {"address": "경기 김포시 걸포동 1563-3 까사미아아울렛 김포점", "first_date": "2023-01-01", "gp_per_car_28d": "257798.0", "hist_car_count": "1.0", "imaginary": "0", "last_date": "2024-02-08", "lat": "37.632122", "lng": "126.706158", "operation_days": "404", "parking_name": "까사미아 김포점", "region2": "김포시", "region3": "걸포동", "revenue_per_car_28d": "1267397.0", "state": "0", "utilization_rate": "32.3", "zone_id": "16003", "zone_name": "까사미아 김포점"}, {"address": "경기 김포시 풍무동 429-25", "first_date": "2023-01-01", "gp_per_car_28d": "299857.0", "hist_car_count": "1.0", "imaginary": "0", "last_date": "2023-06-16", "lat": "37.601544", "lng": "126.720508", "operation_days": "167", "parking_name": "풍무 대박갈비 뒷편 주차장", "region2": "김포시", "region3": "풍무동", "revenue_per_car_28d": "1446470.0", "state": "0", "utilization_rate": "37.8", "zone_id": "16462", "zone_name": "당곡입구사거리"}, {"address": "경기 김포시 걸포동 165-6", "first_date": "2023-07-08", "gp_per_car_28d": "98818.0", "hist_car_count": "1.0", "imaginary": "0", "last_date": "2025-03-28", "lat": "37.632687", "lng": "126.697198", "operation_days": "618", "parking_name": "롯데하이마트 북변점", "region2": "김포시", "region3": "걸포동", "revenue_per_car_28d": "1366204.0", "state": "0", "utilization_rate": "38.4", "zone_id": "17816", "zone_name": "롯데하이마트 북변점"}, {"address": "경기 김포시 마산동 662-13", "first_date": "2023-07-02", "gp_per_car_28d": "122146.0", "hist_car_count": "1.0", "imaginary": "0", "last_date": "2025-05-23", "lat": "37.634267", "lng": "126.644958", "operation_days": "633", "parking_name": "마산2 공영주차장", "region2": "김포시", "region3": "마산동", "revenue_per_car_28d": "1260398.0", "state": "0", "utilization_rate": "28.3", "zone_id": "17698", "zone_name": "마산2 공영주차장"}, {"address": "경기 김포시 북변동 758", "first_date": "2023-01-03", "gp_per_car_28d": "201571.0", "hist_car_count": "2.8", "imaginary": "0", "last_date": "2025-06-01", "lat": "37.6283", "lng": "126.70269", "operation_days": "881", "parking_name": "북변자주식 공영주차장", "region2": "김포시", "region3": "북변동", "revenue_per_car_28d": "1295731.0", "state": "0", "utilization_rate": "37.4", "zone_id": "6440", "zone_name": "북변자주식 공영주차장"},